{"1-hundred-bistro":{"name":"1 Hundred Bistro","address":"1001 Fairview Ave","city":"Seattle","state":"WA","zip":"98109","telephone":"(206) 402-6364","promotions":["20% off total guest check(2 - 6 adults)","10% savings on banquets booked","18% gratuity automatically added"],"id":"1-hundred-bistro","formatted_address":"1001 Fairview Avenue North, Seattle, WA 98109, USA","lat":47.628822,"lng":-122.33174,"rating":null,"gplaces_ref":"CoQBdwAAAOJ-Ji-AQobr8h3k1Ek_ZnhSlMyd3_ySHi-dtn2tNwseK1XxDAmAJlvKjfoKj3OrIJsU8oal7CBSGL9nYZRx1wk2MTGdgCgY04TrOnKI7nNBzsI0jtTPVJVp-ujGWdw_rLIcTGg3zARTN-qKnEgFJgeEAkeKn87Ozjv29wqNyidxEhD4UBs_B6A4bN1FD-Q5t6G8GhRVLw5G0iRJ4QxfeSm4X032zMP0bA"},"125th-street-grill":{"name":"125th Street Grill","address":"12255 Aurora Ave N","city":"Seattle","state":"WA","zip":"98153","telephone":"(206) 363-8950","promotions":["Receive the second adult entrée of equal or lesser value in the party (party meaning 2 or more people) complimentary.","18% gratuity automatically added"],"id":"125th-street-grill","formatted_address":"12255 Aurora Avenue North, Seattle, WA 98133, USA","lat":47.719292,"lng":-122.345121,"rating":3.7,"gplaces_ref":"CoQBdAAAAKzVq9yVbUWAYnZKvFeXv4-umfNWmTaL7BvwrkG9WEafgGwtAGC_Bb3qTp_tlvT_Fszq3eV-jqBIztDy4KpbSudaRgTAmouEtHDjNuTwGZP_rTGsEu-t_xvtUcdv878Dqiaj1rxYHgKr3EiOc7gHvS-RxOaPnH57Tv-WHWj85LrmEhCBSoUJDj8onqtNIlkEhOlRGhShGIjXOzcA7C7_-FBnaiS38OWh3Q"},"13-coins-restaurant":{"name":"13 Coins Restaurant","address":"125 Boren Ave. N","city":"Seattle","state":"WA","zip":"98019","telephone":"(206) 682-2513","promotions":["Receive the second adult entrée of equal or lesser value in the party (party meaning 2 or more people) complimentary.","10% savings on banquets booked","This location only."],"id":"13-coins-restaurant","formatted_address":"125 Boren Avenue North, Seattle, WA 98109, USA","lat":47.619191,"lng":-122.336002,"rating":4.1,"gplaces_ref":"CoQBdQAAAA4cLhwiImEw2TJdSpPk7CbfmwNYI7Wg13rvxI7t2Ldjn3n166NXhxnasldLN_OFTBYanw4jTMjSWTFsM6QgTB-Z9GF9pU4nbq82xlDqTq0zNUANeV2ouCm989zuZMo2wPw-nO0m-OX4G-T71djXlwlQXh5RwomZnD4MA8VxibB0EhCTKtRmmnSblw6lY9A9EJfBGhQtgMm0uVUSbedk4Rnnhd8br3TAhA"},"4th-street-grill-lounge":{"name":"4th Street Grill & Lounge","address":"4004 NE 4th St.","city":"Renton","state":"WA","zip":"98056","telephone":"(425) 255-3595","promotions":["20% off total guest check(2 - 6 adults)","20% off total bill when dining alone","10% savings on banquets booked"],"id":"4th-street-grill-lounge","formatted_address":"4004 Northeast 4th Street, Renton, WA 98056, USA","lat":47.488893,"lng":-122.165723,"rating":3.3,"gplaces_ref":"CoQBewAAAJycsFfs3_akSDHYO08CVhpuOrTeOCU4Uf3_PsD8S42repLjPaqlcX3ESN_if7BSscQBsK2OCgNuzcNwbx2WTCDSlbA5p3x1p1MT0tV6q2GtZVhZC2y8MXIed7vjNLQN57n9NMGskckAp9fmRHVmFgUTttaT7D7dCBudNsNS6tlXEhCdPKlJiMFwZcJ4_aCBRjylGhRvlFIe2hIagal4J1LgZNjRVR8VtQ"},"aa-sushi":{"name":"aa Sushi","address":"9730 NE 119th Way","city":"Kirkland","state":"WA","zip":"98034","telephone":"(425) 821-7989","promotions":["20% off total guest check(2 - 6 adults)"],"id":"aa-sushi","formatted_address":"9730 Northeast 119th Way, Kirkland, WA 98034, USA","lat":47.707011,"lng":-122.211741,"rating":3.7,"gplaces_ref":"CnRqAAAA5tptdDrmyVAYyyWNk8easiGvzy99EfaCUjwDs6eEMWvoMQHLPAxW7bGECcx5_CZxSXCxFLHtkwzxcOJlOAz_qg7Zc0r1K0rsbcJiIYEzTB4xwriyHlVxwdDUL_3Q78GtJEryzZ-4wDaiKNjWYB3b9BIQdj-7fuIaMUNFC66VXQzAVxoUV11cOV3blBZZjK8BkxqZLR7ffyk"},"al-boccalino":{"name":"Al Boccalino","address":"1 Yesler Way","city":"Seattle","state":"WA","zip":"98104","telephone":"(206) 622-7688","promotions":["Receive the second adult entrée of equal or lesser value in the party (party meaning 2 or more people) complimentary.","18% gratuity automatically added"],"id":"al-boccalino","formatted_address":"1 Yesler Way, Seattle, WA 98104, USA","lat":47.60154,"lng":-122.335678,"rating":4,"gplaces_ref":"CnRuAAAAdybtnJp1e5VY-F98WbTliKyoXZq1eXe2htxpVE9474wFIpL9SEP1NOeWqKwvvhGiXHEozZJY4k6LCSwH9lsmGwYVAHMDUwd5sNgyXs1jbhwk7RCo_qFewcHwU-i_w1SbLbEwnPMA38MJGWPgKpCbxRIQEYTboSU_JUo4VTsMaEbP-xoURL4NjZUEPrruoddsjwqVLW5hmyw"},"al-lago-restaurant":{"name":"Al Lago Restaurant","address":"3110 Sumner Tapps Hwy E","city":"Lake Tapps","state":"WA","zip":"98391","telephone":"(253) 863-8636","promotions":["Receive the second adult entrée of equal or lesser value in the party (party meaning 2 or more people) complimentary.","18% gratuity automatically added"],"id":"al-lago-restaurant","formatted_address":"3110 Sumner Tapps Highway East, Lake Tapps, WA 98391, USA","lat":47.229086,"lng":-122.200445,"rating":4.1,"gplaces_ref":"CoQBcwAAABGIoac2fGtFPlFuLAIv8LCHyFdl8FZIVOmwOdiKVf5TJrXSrJWC4YF8e5nSyWo-dPd0Z2h_VMIFMx3dHHtEYtOkXey5OaGZoCOMJDrm9_UcZicNCHFqQSmqczWVxISt6NresL40n3btW6ttFHrw6Kc9fy03YzcbThB4pYn3P2maEhCBSx1bAFja8SDIWEQQKhWBGhR_8fa6pYQbngxnJ4M923khT-L2zg"},"alexas-caf-catering":{"name":"Alexas Caf & Catering","address":"10115 Main St.","city":"Bothell","state":"WA","zip":"98011","telephone":"(425) 402-1754","promotions":["Receive the second adult entrée of equal or lesser value in the party (party meaning 2 or more people) complimentary."],"id":"alexas-caf-catering","formatted_address":"10115 Main Street, Bothell, WA 98011, USA","lat":47.759868,"lng":-122.204777,"rating":3.6,"gplaces_ref":"CoQBeQAAAMIU3GFzdbkKX6aYSJ6aSH34oV1W0nTb2eT2Mjx7fKvEPYxcnfJVi7WS4TU_JCGanDqRjxuuWtSdre-omWMi_stU__jYHfNKaWFTKez80UGIy4ujcQjPuC6ks6roywgKNNcwpifmcV9NmxmXQ7WeRIDeY4MqZ4pVa8mAn2X7RxwkEhDd5e4wKKCIXkPGCanJpMhKGhQd1a1nxE6-yqys2aPWL6NgWFhvrQ"},"amante-pizza-pasta":{"name":"Amante Pizza & Pasta","address":"1525 E Olive Way","city":"Seattle","state":"WA","zip":"98122","telephone":"(206) 861-1777","promotions":["Receive the second adult entrée of equal or lesser value in the party (party meaning 2 or more people) complimentary.","20% off pizza if less than 2 non-pizza entrÃ©es are ordered","20% off total bill when dining alone"],"id":"amante-pizza-pasta","formatted_address":"1525 East Olive Way, Seattle, WA 98122, USA","lat":47.6183013,"lng":-122.3255219},"amante-pizza-pasta-2":{"name":"Amante Pizza & Pasta","address":"131 Front St. N","city":"Issaquah","state":"WA","zip":"98027","telephone":"(425) 313-9600","promotions":["Receive the second adult entrée of equal or lesser value in the party (party meaning 2 or more people) complimentary.","20% off pizza if less than 2 non-pizza entrÃ©es are ordered","10% savings on banquets booked","18% gratuity automatically added","Not valid on daily lunch/dinner specials."],"id":"amante-pizza-pasta-2","formatted_address":"131 Front Street North, Issaquah, WA 98027, USA","lat":47.531744,"lng":-122.036631,"rating":3.2,"gplaces_ref":"CoQBeAAAAORSep1jLfODAbTNzN4LK5OjB-IHfQDDxjS_KmY00JFa0wmbehek2Ij6nQviuqXBaOn67MHIvr5lRVoiRbXKqamdTVp-RryfL4kge8CbExBYOGwV58kyKGnF7A38TnsIoXkjdSNEyoLUb2ZXKmWoScihI1v4usqKh6LBrdi27HDhEhD1IF7-SJNFR9Axvri3rnX5GhTDtt3_Pn20seD5c_vW4VxIS8crdQ"},"amante-pizza-pasta-2-3":{"name":"Amante Pizza & Pasta","address":"12319 Roosevelt Way NE","city":"Seattle","state":"WA","zip":"98125","telephone":"(206) 362-6666","promotions":["Receive the second adult entrée of equal or lesser value in the party (party meaning 2 or more people) complimentary.","20% off pizza if less than 2 non-pizza entrÃ©es are ordered","10% savings on banquets booked","18% gratuity automatically added","Not valid on daily lunch/dinner specials"],"id":"amante-pizza-pasta-2-3","formatted_address":"12319 Roosevelt Way Northeast, Seattle, WA 98125, USA","lat":47.718364,"lng":-122.318532},"americana-bistro":{"name":"Americana Bistro","address":"2300 Evergreen Park Dr.","city":"Olympia","state":"WA","zip":"98502","telephone":"(360) 943-4000","promotions":["Receive the second adult entrée of equal or lesser value in the party (party meaning 2 or more people) complimentary.","20% off total bill when dining alone","20% off on all 'To Go' orders"],"id":"americana-bistro","formatted_address":"2300 Evergreen Park Drive Southwest, Olympia, WA 98502, USA","lat":47.0275054,"lng":-122.91287},"amys-on-the-bay-restaurant-bar":{"name":"Amys On The Bay Restaurant & Bar","address":"100 Harrison St","city":"Port Orchard","state":"WA","zip":"98366","telephone":"(360) 876-1445","promotions":["Receive the second adult entrée of equal or lesser value in the party (party meaning 2 or more people) complimentary.","18% gratuity automatically added"],"id":"amys-on-the-bay-restaurant-bar","formatted_address":"100 Harrison Avenue, Port Orchard, WA 98366, USA","lat":47.542107,"lng":-122.63491,"rating":3.4,"gplaces_ref":"CoQBcgAAANtm3bnjvqet-ISf-5O1XVQ19JyFVAob_VmvUETqTBlK9Qdv3SlMPBzKDu6nt8r_q5WVm3aEoN7CdXnGAfjBlwKmbG-6dnoL3SeXlvMgG28TEu1RpnRki7NBg_JJHM9Un-SU4a29EtOL_6y3hoJU-7xitkbez6RBOFUjVAeokyNrEhCufYxh-aSPdvmZLy-PAG7cGhQ0Ljsit6ugnCNHI32gmjAq6J2zqA"},"andiamo":{"name":"Andiamo","address":"938 110th Ave. NE","city":"Bellevue","state":"WA","zip":"98004","telephone":"(425) 452-9602","promotions":["Receive the second adult entrée of equal or lesser value in the party (party meaning 2 or more people) complimentary.","18% gratuity automatically added"],"id":"andiamo","formatted_address":"938 110th Avenue Northeast, Bellevue, WA 98004, USA","lat":47.619244,"lng":-122.193481,"rating":3.5,"gplaces_ref":"CoQBcwAAAKDC6n2ENsyPPRZkkDTsJ0UIOl5gQ0BjP5V_piaecJb5yPQgeXw_n23eqqIIuObL7Vj167fj8MK2VwVDevDl-QDMRCMqmUgujPEefYbafyRMbvX1dHpHi4c-Twe9mgsbtIfW4dFywNwLylgEa-eqs9J4JGppcfgwd_d6XPQfaGqlEhClRSMwfyPq_Y0MLp3oYp0XGhQsOESfV1RbaI8lLIvLsrVYkRU9Dw"},"aqua-terra":{"name":"Aqua Terra","address":"3201 S 176th St.","city":"Seattle","state":"WA","zip":"98188","telephone":"(206) 241-2000","promotions":["Receive the second adult entrée of equal or lesser value in the party (party meaning 2 or more people) complimentary."],"id":"aqua-terra","formatted_address":"3201 South 176th Street, Seattle, WA 98188, USA","lat":47.44396,"lng":-122.290852,"rating":null,"gplaces_ref":"CnRsAAAAx8KKEvv7j24oksw44eF8BAfkfH4l4cfhx9fMuqRiVtwQdh6gxlk757utj4aqMQYo91HGyMt3i5_GBW-ulKVFhDtvpBbAfEkppTxtlBqqzAh_ovQe_v3W9AnZGzCq-EbMIou7ulDc8Zc9se6GHM_bjRIQZkc9qyPtadWh9Efm3ovrphoUYBIIXBgOhJUXKULOXLJAhOyP0EE"},"arnies-in-edmonds":{"name":"Arnies in Edmonds","address":"300 Admiral Way","city":"Edmonds","state":"WA","zip":"98020","telephone":"(425) 771-5688","promotions":["Receive the second adult entrée of equal or lesser value in the party (party meaning 2 or more people) complimentary.","75% off 2nd brunch"],"id":"arnies-in-edmonds","formatted_address":"300 Admiral Way, Edmonds, WA 98020, USA","lat":47.810071,"lng":-122.387669,"rating":3.8,"gplaces_ref":"CoQBcwAAANayGJJq2UCBg4_RUo4MhvOp4xnKxI4osPKaOin84pRf-MG7EG6tQG5vDHxfbyVjIg3k68XPXOorMd_5X8qCAk8Tsuf258l0vTgvl_xicBPijL3a9hW5PRzZ0l9tFRVigXk1xmukuB-V0lqxTHSksYE0sJt6Tf4do0ResBs-VzG9EhDKWeVTV3AbeVzJEY9bdBEJGhTkvgVm3be1BoeOtRJtNRYtlpeyyw"},"arnies-in-mukilteo":{"name":"Arnies in Mukilteo","address":"714 2nd St.","city":"Mukilteo","state":"WA","zip":"98275","telephone":"(425) 355-2181","promotions":["Receive the second adult entrée of equal or lesser value in the party (party meaning 2 or more people) complimentary.","75% off 2nd brunch"],"id":"arnies-in-mukilteo","formatted_address":"714 2nd Street, Mukilteo, WA 98275, USA","lat":47.94736,"lng":-122.303207,"rating":3.9,"gplaces_ref":"CoQBeAAAAN4Nm7IkmJiS9O5aEItJiLY-W6GIvZKHY5IPbqcqliEgakNyI5RUf2Ay_MebPlW0z73GDpKWAa-g7b5_iRLxbi8uGzzg61R10wldDtiCxPi9vBNYWTOtRFIiV2Em_HxfHcjHtLtTl4GwPYiEa5Eabxd4-mAJ8I1Xz89aTfjhyMumEhAhf1IxEt-KeZzan8IkGBprGhRzxXqysqQHgWpg053y4G8-Cb8hcg"},"asian-1":{"name":"Asian 1","address":"145 Cascade Place","city":"Burlington","state":"WA","zip":"98233","telephone":"(360) 707-2422","promotions":["20% off total guest check(2 - 6 adults)","Dine-in only"],"id":"asian-1","formatted_address":"145 Cascade Place, Burlington, WA 98233, USA","lat":48.4604901,"lng":-122.3341151},"asian-1-2":{"name":"Asian 1","address":"4285 Meridian St.","city":"Bellingham","state":"WA","zip":"98226","telephone":"(360) 752-2422","promotions":["20% off total guest check(2 - 6 adults)","Dine-in only"],"id":"asian-1-2","formatted_address":"4285 Meridian Street, Cordata Center, Bellingham, WA 98226, USA","lat":48.796735,"lng":-122.486472,"rating":3.5,"gplaces_ref":"CoQBfgAAAMW4rpOYajvDk43AJEIwSUUzgXZ8ywZnupld8neyxenRZTwa7E6uVECY15bfCVffNE2vx4A4hz3u3B7zqYeQTv_PcN8vEXfIACs25YviwhyE8Zeoct2o9TqNyJxe3dXu4lwcZQN2B69S6wWqqmEaCRupdwjTaZo4kfav8bB4JYPMEhADi3RXNBb1TgSB_PvqnXiKGhTjlKksWusVvIjFJ3eXCNQ2dNqjbA"},"bandidos-mexican-caf":{"name":"Bandidos Mexican Caf","address":"16156 NE 87th St","city":"Redmond","state":"WA","zip":"98052","telephone":"(425) 882-7747","promotions":["Receive the second adult entrée of equal or lesser value in the party (party meaning 2 or more people) complimentary.","20% off total bill when dining alone","18% gratuity automatically added","Dine-in onlyNot valid with daily specials or happy hour"],"id":"bandidos-mexican-caf","formatted_address":"16156 Northeast 87th Street, Redmond, WA 98052, USA","lat":47.680069,"lng":-122.123527,"rating":4,"gplaces_ref":"CoQBfAAAAN7U_F4BiaLf5n6k-Fjb9E2Tkqw2J8ETNO2CckrR_nrIjNLeOOHhbGsb3C09Yz1oiMobfHKB1mHjb5UmAvvo-2Y_ERQu4fALWalk82OgjCxaxTgDMJRyABRCS-L-G5tNS0N-9kOa-eIMq_lLrDyT9y3BF1atzzfBb57U9u2DsCZIEhCe9OraBdQtqW-g3MFSRNAVGhTEAKedIc9E_O9WpvkePcBGOIH4nQ"},"basils-kitchen":{"name":"Basils Kitchen","address":"300 112th Ave. SE","city":"Bellevue","state":"WA","zip":"98004","telephone":"(425) 452-4848","promotions":["Receive the second adult entrée of equal or lesser value in the party (party meaning 2 or more people) complimentary.","20% off total bill when dining alone"],"id":"basils-kitchen","formatted_address":"300 112th Avenue Southeast, Bellevue, WA 98004, USA","lat":47.607289,"lng":-122.189523,"rating":4,"gplaces_ref":"CoQBcQAAALUsIJSgVkDSvLDXVidv1GZ09npwBkn3FKq8hEFriMeQHVR1fSCZdHSCunPPbSnKGe9FKog1QoVsKZsro-ppkELMpASaewTjqAqABcu8Kg0jDu2pUl0llNOHwCkj7zWzreYr5mlvxpFQguKSAZssLaKpaYNvpdab8nhwc4MC2vEOEhBm3zgG288GH-r46qgt5mUDGhTKxmLQISxG-MRSxs-pvrdGQZNK-w"},"basils-kitchen-lounge":{"name":"Basils Kitchen & Lounge","address":"15920 W Valley Hwy.","city":"Tukwila","state":"WA","zip":"98501","telephone":"(425) 227-9406","promotions":["Receive the second adult entrée of equal or lesser value in the party (party meaning 2 or more people) complimentary.","20% off total bill when dining alone"],"id":"basils-kitchen-lounge","formatted_address":"15920 West Valley Highway, Tukwila, WA 98188, USA","lat":47.460841,"lng":-122.244691,"rating":3.8,"gplaces_ref":"CoQBdwAAACJ6W_Cy5vf4rJiNCHlye9YVCxn0XxPUA8oiSekBOsYLbapaIn3peylqRP3SDFhgfP7BsB1CDoV_POyZ8xKrfEwn9QMDJguW-WDOVjspwvh1UEmpD2VAX5eC2TssvW99_blyyzlNVDsD1RNSWhpoW0Z29Vm3MVSCMx3xpYXBR5WwEhBPET-MXepkZiKQBnXjxdACGhS2ad1te5OT0HjFZ1gOJEwEBTF_NA"},"beach-caf":{"name":"Beach Caf","address":"1170 Carillon Pt.","city":"Kirkland","state":"WA","zip":"98033","telephone":"(425) 889-0303","promotions":["Receive the second adult entrée of equal or lesser value in the party (party meaning 2 or more people) complimentary.","18% gratuity automatically added","Max use 2 cards per party"],"id":"beach-caf","formatted_address":"1170 Carillon Point, Kirkland, WA 98033, USA","lat":47.65688,"lng":-122.207716,"rating":4,"gplaces_ref":"CnRsAAAAE43kYGrWBvA8dX6BxdL5zlrp0_Dee7XRfUgOvAdTYiEYd88wB4fOLPftURQC9icJStW5yI9Z2QsC6o-vaqycs-GAAaULSkvlnBI1mYEIehPexcP6UKFfV5kBCWTNta_C4Ou6Cm8enn4DQT7J46oeahIQXIk3OyzXxMFAPZR3vW5YXhoUn-7WnI_cAMG3FZdFOrV5m7k2AYU"},"ben-dews-clubhouse-grill":{"name":"Ben Dews Clubhouse Grill","address":"6501 6th Ave.","city":"Tacoma","state":"WA","zip":"98406","telephone":"(253) 564-4442","promotions":["Receive the second adult entrée of equal or lesser value in the party (party meaning 2 or more people) complimentary."],"id":"ben-dews-clubhouse-grill","formatted_address":"6501 6th Avenue, Tacoma, WA 98406, USA","lat":47.255628,"lng":-122.5245,"rating":4,"gplaces_ref":"CoQBegAAAKIATQ57zRkntsxoiDOiQbaStK-dy7XLRHWE0dN4Xuh6dEEdWKodu-EO6KDSui9jbdzHnStU_XeEmj8fqr2W5x93RzxplcmiQu-DsZb7aD8K3m7Ffl3tCFZioZozLcPX-qgQUe44WlfBj-8ZnMUMGr-qmrnvPKRfPvuP9DFnIjVVEhA1YOs4LVVgPQyFXspuin8xGhTRIlpJk5M_omoohi8mf6knYj3QRA"},"benihana":{"name":"Benihana","address":"1200 Fifth Ave.","city":"Seattle","state":"WA","zip":"98101","telephone":"(206) 682-4686","promotions":["Lunch for Two $17 orDinner for Two $40 1Two sushi lunch buffets $25 2","1 Create your own lunch/dinner by selecting two of your Benihana favorites.2 Sushi buffets valid only in the sushi lounge."],"id":"benihana","formatted_address":"1200 5th Avenue, Seattle, WA 98101, USA","lat":47.608666,"lng":-122.333242,"rating":4,"gplaces_ref":"CnRqAAAAyX4a9VH4sAR4TXs7wCUrmJG8dWBcTQk_Y4BIjSmDMaETrIRtdzLrs0nOmI0H8QXIzyzbhB2V0lvUznsGNeBHJPKvGwpx3ggSEYUMEo0sgEJdrIq-CSkoeRUZhPgp8C9CufKSiN4pEY7qSYlFBhC9gxIQ6rD2cOiV7cG_6kvzGPNBxRoU1lbBNHBeSS9twIX06CGhhkgklNg"},"big-e-ale-house-and-brewery":{"name":"Big E Ale House and Brewery","address":"Suite A","city":"Lynnwood","state":"WA","zip":"98036","telephone":"(425) 672-7051","promotions":["Receive the second adult entrée of equal or lesser value in the party (party meaning 2 or more people) complimentary.","20% off total bill when dining alone"],"id":"big-e-ale-house-and-brewery","formatted_address":"Lynnwood, WA 98036, USA","lat":47.8156217,"lng":-122.3269187},"bin-on-the-lake":{"name":"bin on the lake","address":"1270 Carillon Pt.","city":"Kirkland","state":"WA","zip":"98033","telephone":"(425) 803-5595","promotions":["Receive the second adult entrée of equal or lesser value in the party (party meaning 2 or more people) complimentary.","18% gratuity automatically added","Max use 2 cards per party"],"id":"bin-on-the-lake","formatted_address":"1270 Carillon Point, Kirkland, WA 98033, USA","lat":47.656314,"lng":-122.207338,"rating":4.1,"gplaces_ref":"CoQBcQAAAAUj_f4dqC6BizshdueswHTJ7ySat_jD8gF0pFVSs6Clan0JF1oqvn8Ds80tf4Gzq5nbkA0ZzHRi3Dp1Y4vGFbxC9fXiB4ZTXkdgn-KSd7jCDBadMi5XGHD_P8ZA74p1UvpYptmR9qW5w9D7cmyvfbCFB3lj6nWaL1GrhNC41OB2EhD7cuAzz5MnqhayuCGwIggVGhQdOtcPQCGu3iKXdjgzo4U7aVl4IA"},"bistro-satsuma":{"name":"Bistro Satsuma","address":"5315 Pt Fosdick Dr NW","city":"Gig Harbor","state":"WA","zip":"98335","telephone":"(253) 858-5151","promotions":["20% off total guest check(2 - 6 adults)","18% gratuity automatically added"],"id":"bistro-satsuma","formatted_address":"5315 Point Fosdick Drive Northwest, Gig Harbor, WA 98335, USA","lat":47.305969,"lng":-122.578946,"rating":3.7,"gplaces_ref":"CnRwAAAAO2C8lfn0XbJIRTwR_OuV4dF8JXz4vU_Z0gSLQwa4lj1m0meW8mP2hRmdp7IA8sZp0Hh8GrIBWr--HuMp64ccyJfD1U_ooJVLHAHorOaTziGRmMPjsmJDUnUq69lKsVz9zq6IB9pGtTRreEtglMpUtxIQrApnKeFAFY_jpP2ISaeRJBoUq__7XqOx5Okj5ANbP8SeAZglQPs"},"bite-restaurant-bar":{"name":"Bite Restaurant & Bar","address":"1320 Broadway Plz.","city":"Tacoma","state":"WA","zip":"98402","telephone":"(253) 591-4151","promotions":["Receive the second adult entrée of equal or lesser value in the party (party meaning 2 or more people) complimentary."],"id":"bite-restaurant-bar","formatted_address":"Broadway Street South, Tacoma, WA 98444, USA","lat":47.1613978,"lng":-122.4414567},"boka-restaurant-bar":{"name":"BOKA Restaurant & Bar","address":"1010 1st Ave.","city":"Seattle","state":"WA","zip":"98104","telephone":"(206) 357-9000","promotions":["Receive the second adult entrée of equal or lesser value in the party (party meaning 2 or more people) complimentary."],"id":"boka-restaurant-bar","formatted_address":"1010 1st Avenue, Seattle, WA 98104, USA","lat":47.605014,"lng":-122.336276,"rating":4.2,"gplaces_ref":"CoQBeAAAAGO3Gknz0s2xMNQ9ivpR4A2GPUszfCwfYbe7P7CIMy9QhN3cMdLlVPQ0a5tR2s8B1y9CR-y72DigFbbthYQRxsiElhAX-m_c0Z_aW1tvP06Mons98yTOsVIL5_BIe20poKyySP_8PMPB2N6gnXJGkPssfo-OQ4yCDCufn_BCDpPYEhCQWPuecvkfQ4Fw5t6icGy6GhRo992OtLWnU1g3bIZ12rziNbAIGg"},"boxleys":{"name":"Boxleys","address":"101 W North Bend Way","city":"North Bend","state":"WA","zip":"98045","telephone":"(425) 292-9307","promotions":["Receive the second adult entrée of equal or lesser value in the party (party meaning 2 or more people) complimentary.","20% off total bill when dining alone","20% off on all 'To Go' orders","10% savings on banquets booked"],"id":"boxleys","formatted_address":"101 West North Bend Way, North Bend, WA 98045, USA","lat":47.494881,"lng":-121.786008,"rating":4.2,"gplaces_ref":"CnRoAAAA9WE3XZNAYbNKTzcWnvcwDlK42uFa_wIiRKLkq_m-JG8IWVYe48hiVac2tGo_hv7CBKqjZtI6WxGCfYOa6Nb_4R6vVqsYbKUwxjtdx7QFqmLzBXbqWOb8LLdEmS_4_RT-VpGM-zVYjA3Kvhis3FQszRIQHWcsepCY0rovO_xS2VJbNxoUOV5tUTI5e6T14Ak1myuBMQcQS-E"},"bremerton-bar-grill":{"name":"Bremerton Bar & Grill","address":"190 Pacific Ave.","city":"Bremerton","state":"WA","zip":"98337","telephone":"(360) 627-8081","promotions":["Receive the second adult entrée of equal or lesser value in the party (party meaning 2 or more people) complimentary."],"id":"bremerton-bar-grill","formatted_address":"190 Pacific Avenue, Bremerton, WA 98337, USA","lat":47.5641743,"lng":-122.6268739},"brix-25-restaurant":{"name":"Brix 25 Restaurant","address":"7707 Pioneer Way","city":"Gig Harbor","state":"WA","zip":"98335","telephone":"(253) 858-6626","promotions":["Receive the second adult entrée of equal or lesser value in the party (party meaning 2 or more people) complimentary."],"id":"brix-25-restaurant","formatted_address":"7707 Pioneer Way, Gig Harbor, WA 98335, USA","lat":47.328433,"lng":-122.581834,"rating":4.3,"gplaces_ref":"CnRpAAAATHRHXzqjFjrPEJevereycBIVQM6UsGpOgViufDeqFGZtcIm4i1LcEK3vByFy0LW-YMw6RifQPZ0wFdB_urDZP5H3xu8Vk3oNZHTdH-S22ID4-eQKM61Ho_DAsOjlYqphcxz4tXeIRf3n6a2oPYX80RIQybvxd1YbjEK6ZWqG9yYd9RoUSwIuYX1xclBiaDSTQaO0ZhDsJqA"},"brunello-ristorante-italiano":{"name":"Brunello Ristorante Italiano","address":"7708 Center Blvd SE","city":"Snoqualmie","state":"WA","zip":"98065","telephone":"(425) 888-6800","promotions":["Receive the second adult entrée of equal or lesser value in the party (party meaning 2 or more people) complimentary.","20% off on all 'To Go' orders"],"id":"brunello-ristorante-italiano","formatted_address":"7708 Center Boulevard Southeast, Snoqualmie, WA 98065, USA","lat":47.5314805,"lng":-121.8733741},"bucks-american-caf":{"name":"Bucks American Caf","address":"2901 Hewitt Ave.","city":"Everett","state":"WA","zip":"98201","telephone":"(425) 258-1351","promotions":["Receive the second adult entrée of equal or lesser value in the party (party meaning 2 or more people) complimentary."],"id":"bucks-american-caf","formatted_address":"2901 Hewitt Avenue, Everett, WA 98201, USA","lat":47.979239,"lng":-122.192124,"rating":3.8,"gplaces_ref":"CoQBdwAAAEdrLKuiO8eEzE68Qk65A_3BiXP1K2AWSoZyM3ti2fdYeW5eiJoLXpr9MU6-5xnubLfwOfgJAoq75nfcs9P7eGN5OYjYuvMa0w9AfLtyluzODW8JsB-6yHAOoew0miBlpePMm8k96uLzFLRb6WCW_eevGcfdVZzg2eRTDxYM3LxBEhBf3lmSYFD3H_EgnxAwJnnYGhRIorGYW4lMRS1q8r0xO-wMEXuVvw"},"budapest-bistro":{"name":"Budapest Bistro","address":"12926 Mukilteo Spdwy.","city":"Lynnwood","state":"WA","zip":"98037","telephone":"(425) 513-9846","promotions":["20% off total guest check(2 - 6 adults)"],"id":"budapest-bistro","formatted_address":"12926 Mukilteo Speedway, Lynnwood, WA 98087, USA","lat":47.881008,"lng":-122.279326,"rating":4.1,"gplaces_ref":"CoQBcQAAAIVUYlix3UnN8-W9YGI9XbbitQXh87875J5Zbr9vPf2Voj5c9cbQCpIM773LxTaRS4o3BybXSmhMpH2jyK7SZx885DGWX2BZvm4euDHm6B7lggwWGWukF2zAmMPNKkZw5Z8ergWFb8TdeZ6cOluv061fodyi4jjCXB_cwme3FWlEEhAr-QjqGUC5aTsv_M8ZcgS8GhSJ2lcNoHecXHBkA_D45xIi8TTclA"},"cabbage-patch":{"name":"Cabbage Patch","address":"111 Ave. A","city":"Snohomish","state":"WA","zip":"98290","telephone":"(360) 568-9091","promotions":["Receive the second adult entrée of equal or lesser value in the party (party meaning 2 or more people) complimentary.","20% off total bill when dining alone","10% savings on banquets booked"],"id":"cabbage-patch","formatted_address":"111 Ave A, Snohomish, WA 98290, USA","lat":47.9118812,"lng":-122.0940592},"cafe-bengodi":{"name":"Cafe Bengodi","address":"700 1st Ave.","city":"Seattle","state":"WA","zip":"98104","telephone":"(206) 381-0705","promotions":["Receive the second adult entrée of equal or lesser value in the party (party meaning 2 or more people) complimentary.","10% savings on banquets booked"],"id":"cafe-bengodi","formatted_address":"700 1st Avenue, Seattle, WA 98104, USA","lat":47.602737,"lng":-122.334158,"rating":3.8,"gplaces_ref":"CnRtAAAALP4olhyKGTbGXpSGq8eGyRreIrX4NVhtkFm0-j-Za_l17WGqJd16IKsJNK2zZ20A-rYsQKHFCWoKIlYJTay3_hEoyuL09wcqm6zPCDa-0x0VlRGdWjbKIO0pGpvIO8Gvp-iyqpxWM8NT_RAh90qcUhIQhIefCoyLF98SslwcP4ypQBoUKiaMR-gY1iXc5dfNjKq3SMN0pfM"},"cafe-de-paris":{"name":"Cafe De Paris","address":"109 Main St.","city":"Edmonds","state":"WA","zip":"98020","telephone":"(425) 771-2350","promotions":["Receive the second adult entrée of equal or lesser value in the party (party meaning 2 or more people) complimentary.","Max $13.95/$20.95 savings on lunch/dinner specials."],"id":"cafe-de-paris","formatted_address":"109 Main Street, Edmonds, WA 98020, USA","lat":47.812181,"lng":-122.381364,"rating":4.2,"gplaces_ref":"CoQBegAAANH2tua0LHCeoE-kE5PrUHuO-AMjZmZuxexLGp32wGO8yekT_F7Y5JmE1APCh2VO99PU8epx3X5GPAv57beiDWFE4y0ylg7WWqWypEkVwpDNRMokokuxuZ59JZgHlC_YWPjppiygcro-TfExEV5CViIpjOnm6_lM6rRpZhgvhAp9EhBdT2AiQN2D3-YLhxuIw6XQGhTYy7DNdeBbBKozi6zDcy03f0I3RA"},"caf-parco":{"name":"Caf Parco","address":"1807 42nd Ave E","city":"Seattle","state":"WA","zip":"98112","telephone":"(206) 328-4757","promotions":["Receive the second adult entrée of equal or lesser value in the party (party meaning 2 or more people) complimentary."],"id":"caf-parco","formatted_address":"1807 42nd Avenue East, Seattle, WA 98112, USA","lat":47.6348602,"lng":-122.2787819},"calabria-ristorante-italiano":{"name":"Calabria Ristorante Italiano","address":"3922 148th St SE","city":"Mill Creek","state":"WA","zip":"98012","telephone":"(425) 379-7010","promotions":["Receive the second adult entrée of equal or lesser value in the party (party meaning 2 or more people) complimentary.","$9 savings on 3 course menu","Not valid on daily specials"],"id":"calabria-ristorante-italiano","formatted_address":"3922 148th Street Southeast, Mill Creek, WA 98012, USA","lat":47.8634541,"lng":-122.2041132},"cals-classic-american":{"name":"Cals Classic American","address":"504 Ramsay Way","city":"Kent","state":"WA","zip":"98032","telephone":"(253) 234-1913","promotions":["Receive the second adult entrée of equal or lesser value in the party (party meaning 2 or more people) complimentary.","18% gratuity automatically added"],"id":"cals-classic-american","formatted_address":"504 Ramsay Way, Kent, WA 98032, USA","lat":47.384186,"lng":-122.234615,"rating":4.1,"gplaces_ref":"CoQBeQAAAASK105UouwCykIa82W5zvuR5Krn_492uxAf2MLWFq3P9cWx5V6hNdHe0Rjt_uPBJpc0TDQEDHmH4EdWif8RYvF-arw_WFdo0SXwRXen2UNoePcbf61THpMvpjY2olQEv3o5KzFJr3-UrxfsvdeOqddHFUsrV6sv0aDbQjXcJ8bfEhAR7NMRUJk6jUQXZeztyw5JGhQVQqMT0fSt35KTIbMDP9rS3LCIyg"},"canyons-restaurant":{"name":"Canyons Restaurant","address":"15740 Redmond Way","city":"Redmond","state":"WA","zip":"98052","telephone":"(425) 556-1390","promotions":["Receive the second adult entrée of equal or lesser value in the party (party meaning 2 or more people) complimentary.","20% off total bill when dining alone","20% off on all 'To Go' orders","10% savings on banquets booked","18% gratuity automatically added"],"id":"canyons-restaurant","formatted_address":"15740 Redmond Way, Redmond, WA 98052, USA","lat":47.674831,"lng":-122.129615,"rating":3.2,"gplaces_ref":"CoQBeQAAADwVOHF2KzKevRBNHbXVrsiy0KrjHxpst4vUce9WtQbUKnfxMoxMMgEpOoEpecv4ttGS2cvk3FdlnCJRmXnYlWWZmh-Aof1qW__fSFrhzN0yg1qxlJ2LAGL1Nvfh-w57mtuQeKoN_aypXf5fQfPCiwDXaEpbumu4Mlmgzmbq2k4YEhBl2vfzmVB_zoELBhQ5dES0GhRFPE7kRudiOWYqzrnDkCcKkXvXNg"},"canyons-restaurant-2":{"name":"Canyons Restaurant","address":"22010 17th Ave. SE","city":"Bothell","state":"WA","zip":"98021","telephone":"(425) 485-3288","promotions":["Receive the second adult entrée of equal or lesser value in the party (party meaning 2 or more people) complimentary.","20% off total bill when dining alone","20% off on all 'To Go' orders","10% savings on banquets booked","18% gratuity automatically added"],"id":"canyons-restaurant-2","formatted_address":"22010 17th Avenue Southeast, Bothell, WA 98021, USA","lat":47.797993,"lng":-122.21163,"rating":3.2,"gplaces_ref":"CoQBcwAAAJpdTx4SPjP5Aj1KvKN9pGhf9VuTh80JUjhKBsmXACFh_M_uzCT8rYsWEs6S7Yx9SKq-_CKjU3vV49acoIYyGPmiLizWKTtw-yKFidFUw9XDjiag_CKSriRw-2qjtOWMcZVUuw9zvnOgXFZV46x5Pnd_lDF0EyRWFGh26yX61S1vEhAEdsOhsZ5UhWCkZv_bjkPGGhRKIhZlfOxL0v4pY7advb-n-Fmytw"},"cellars-restaurant-lounge":{"name":"Cellars Restaurant & Lounge","address":"2132 First Ave.","city":"Seattle","state":"WA","zip":"98121","telephone":"(206) 448-8757","promotions":["Receive the second adult entrée of equal or lesser value in the party (party meaning 2 or more people) complimentary.","20% off total bill when dining alone","10% savings on banquets booked"],"id":"cellars-restaurant-lounge","formatted_address":"2132 1st Avenue, Seattle, WA 98121, USA","lat":47.612581,"lng":-122.344911,"rating":4,"gplaces_ref":"CoQBfQAAAFh--m1ikA9r681g6FqGqe878YmcGa5PYe00nREUuZ5FPNYfHWr_L99iSd95MRH3ou2QBlu4M9HxC5AwR8lenCP800c0YaOqVb9FPfaL2HMCO6X2_J4vII3OOPAUtjTy1ZD0_bH1EJ4mbWq3i1I_8fRx9iYvr3FaLR5obwNyjmUFEhASvE0LSSNgaxGApxDa-7-AGhSfkBIkoZber-nDkWmeHigPvTd2rQ"},"chanterelle":{"name":"Chanterelle","address":"316 Main St","city":"Edmonds","state":"WA","zip":"98020","telephone":"(425) 774-0650","promotions":["Receive the second adult entrée of equal or lesser value in the party (party meaning 2 or more people) complimentary.","Not valid for Breakfast, Early Bird special or Three Course Dinners"],"id":"chanterelle","formatted_address":"316 Main Street, Edmonds, WA 98020, USA","lat":47.811101,"lng":-122.378995,"rating":3.9,"gplaces_ref":"CnRtAAAAy7b7BUjbkCly2-4zkAkbNyqkPAMnR1a6TbTqGGq4p5swiXREf0imclJbQZ3vIXgAoCSZ2j3VRaa5anSqGesk83MIauWsJeKAzfAqrCQJ2rXItGhMFnncEHguq6VGMDq7gfMcQyMFvCQEALK04ct8fBIQxzFeXHJthJfWPX2CWLWYQBoUPjtZgsXvBJ3lva1ykS8txAYQQUU"},"chihuahua-family-mexican":{"name":"Chihuahua Family Mexican","address":"5694 Third Ave","city":"Ferndale","state":"WA","zip":"98248","telephone":"(360) 384-5820","promotions":["Receive the second adult entrée of equal or lesser value in the party (party meaning 2 or more people) complimentary."],"id":"chihuahua-family-mexican","formatted_address":"5694 3rd Avenue, Ferndale, WA 98248, USA","lat":48.847618,"lng":-122.591787,"rating":4.1,"gplaces_ref":"CoQBegAAADZBP9kCItd2nsxfpmFkca2160J3pbF3spqzUkudiOO909Kzog87gVXzlw7ixU-NVdXXJKVM9a9EgVBp73B6qQs3Wvc1yWwBPU27434V3c4e2p8Hmi6MG-2-dDt0b1R3SCDyBQh0nwqkTPIjjZ4orjLRZMj2S947XQIdtTiwgNShEhA-JauGRui9l2g_AQBK_qXtGhReIRe_CCdm-HtFAYc6ZL2tOJUBOQ"},"china-harbor":{"name":"China Harbor","address":"2040 Westlake Ave. N","city":"Seattle","state":"WA","zip":"98109","telephone":"(206) 286-1688","promotions":["Receive the second adult entrée of equal or lesser value in the party (party meaning 2 or more people) complimentary.","20% off total bill when dining alone","20% off on all 'To Go' orders","Not valid on Lunch Specials"],"id":"china-harbor","formatted_address":"2040 Westlake Avenue North, Seattle, WA 98109, USA","lat":47.637324,"lng":-122.340035,"rating":3.3,"gplaces_ref":"CoQBeQAAAD8GROmQP7SsP3LKJqAhYsPIjskoT0DSBregsdLTVv3JDXg6uuTQZZzXxnp5h96BVts1oP36u5CZWqDH41lU1lulKnFCTRQ_EoHj_sjrBq2pCycxaVFkZqBCftuNE0K2fe_iVX1KnhSXFdVnOWawkgxr6eSRTh0dPhUsRY7U0bCHEhCrIhtZXmMn6vHh14qfOzJ3GhQnmgn2IdBZTboRHZupIXyV9Q1W_g"},"chlo-bistrot":{"name":"Chlo Bistrot","address":"3515 NE 45th St","city":"Seattle","state":"WA","zip":"98105","telephone":"(206) 257-0286","promotions":["Receive the second adult entrée of equal or lesser value in the party (party meaning 2 or more people) complimentary.","Not valid on Three Course Dinner Special or 50% Wine Night"],"id":"chlo-bistrot","formatted_address":"3515 Northeast 45th Street, Seattle, WA 98105, USA","lat":47.661021,"lng":-122.289533,"rating":3.9,"gplaces_ref":"CnRwAAAAvyfUc1XPqWKHo4KcsGGCw4LjKydNLkGlhvSmHV5W8cYUXoUHUvqFJA92Mr1GraCtmL7pGba0DAL1BMvzU_un4UUfLoLrskKp6u8SeiTfJLFZ7yld9QXiL6L4V3kbzYqH7G1z8_Awr1qkanzWZ2iP8xIQbXnq-uQ5xAb8lKWjINHd6RoU52IpYRU536lWVwtu5UeqbhvVxyA"},"cjs-beach-house":{"name":"CJs Beach House","address":"7878 Birch Bay Rd","city":"Blaine","state":"WA","zip":"98230","telephone":"(360) 746-8775","promotions":["Receive the second adult entrée of equal or lesser value in the party (party meaning 2 or more people) complimentary.","18% gratuity automatically added"],"id":"cjs-beach-house","formatted_address":"7878 Birch Bay Drive, Blaine, WA 98230, USA","lat":48.9279508,"lng":-122.7444482},"coho-caf":{"name":"Coho Caf","address":"Ste A","city":"Issaquah","state":"WA","zip":"98029","telephone":"(425) 391-4040","promotions":["Receive the second adult entrée of equal or lesser value in the party (party meaning 2 or more people) complimentary.","Not valid on 1/2 price Happy Hour Specials"],"id":"coho-caf","formatted_address":"Issaquah, WA 98029, USA","lat":47.5470114,"lng":-122.0367651},"coho-caf-2":{"name":"Coho Caf","address":"8976 161st Ave. NE","city":"Redmond","state":"WA","zip":"98052","telephone":"(425) 885-2646","promotions":["Receive the second adult entrée of equal or lesser value in the party (party meaning 2 or more people) complimentary.","Not valid on 1/2 price Happy Hour Specials"],"id":"coho-caf-2","formatted_address":"8976 161st Avenue Northeast, Redmond, WA 98052, USA","lat":47.681809,"lng":-122.125097,"rating":3.8,"gplaces_ref":"CnRsAAAAjbEHySqmxslUyzHAdVC-KAD-4gLB1lBO-HnmrUteP62UIp9XhEe5c-407gORdux2Kd9VV6cnrBD5LZSgMC4nM-kpCg4MpmgX9JJi7p9pZAwxbQ-VOnZpPy-N1C7O7-izmp16I1DpWLAsrabSoGKISRIQyq0fjTks8Jpg5rM291CO8xoU6oDZbmF1tWlPEBSIujxbI4ZEtm4"},"collections-caf":{"name":"Collections Caf","address":"305 Harrison St","city":"Seattle","state":"WA","zip":"98109","telephone":"(206) 753-4935","promotions":["Receive the second adult entrée of equal or lesser value in the party (party meaning 2 or more people) complimentary.","Special offer: $15 savings when 2 pre fixe Brunch menu items ordered","20% off total bill when dining alone"],"id":"collections-caf","formatted_address":"305 Harrison Street, Seattle, WA 98109, USA","lat":47.6222945,"lng":-122.3396302},"copper-falls-restaurant-and-bar":{"name":"Copper Falls Restaurant and Bar","address":"29630 Green River Rd. SE","city":"Auburn","state":"WA","zip":"98092","telephone":"(253) 876-1957","promotions":["Receive the second adult entrée of equal or lesser value in the party (party meaning 2 or more people) complimentary.","18% gratuity automatically added"],"id":"copper-falls-restaurant-and-bar","formatted_address":"29630 Green River Road Southeast, Auburn, WA 98092, USA","lat":47.340706,"lng":-122.2065055},"cosmos-ristorante":{"name":"Cosmos Ristorante","address":"1821 SE Lund Ave.","city":"Port Orchard","state":"WA","zip":"98366","telephone":"(360) 895-3138","promotions":["Receive the second adult entrée of equal or lesser value in the party (party meaning 2 or more people) complimentary.","18% gratuity automatically added","Dine-in only"],"id":"cosmos-ristorante","formatted_address":"1821 Southeast Lund Avenue, Port Orchard, WA 98366, USA","lat":47.51963,"lng":-122.628565,"rating":3.9,"gplaces_ref":"CnRuAAAAFKgF16GXAvrPDpR9PUPHAXKOVAHRwc7TF8ZM1jBfDJKa4RMAWgAaHNmZbBEW4rX-dujcLpRlyhu6kEnyk_XV_M3fqLnOzTo1u6jYga45be4Ehcm202fLUMdwp9nT2JIykwwbLry5lExqH-XAxjcmxxIQNXPRZdcZyaUOYnQzCKpcKxoUac28-zRtGjLM5yQKgZ8ekZC3AR0"},"cypress-lounge-wine-bar":{"name":"Cypress Lounge & Wine Bar","address":"600 Bellevue Way NE","city":"Bellevue","state":"WA","zip":"98004","telephone":"(425) 638-1000","promotions":["20% off total guest check(2 - 6 adults)"],"id":"cypress-lounge-wine-bar","formatted_address":"600 Bellevue Way Northeast, Bellevue Square, Bellevue, WA 98004, USA","lat":47.615901,"lng":-122.200456,"rating":4,"gplaces_ref":"CoQBfgAAADh17OvmOT1yJqKuxVkZTCqxclRYzgFJAQ0oAiaDQm4nlV-zq8BwACyAs0DJO6qFVzf-CUdOtC9BkD-PfQ39n7EsmLYveDdhQl6ejnjBTX9hF7rqFE2zzdP71mANUDx9-iPu-OjtHObWfu0cZlWXFzWh0aeXbdbCMMFrveCbuuEeEhByOLcPB_a_qfAP5tyF4HmHGhSN_wTPu-vLPVjNqymxvaeJQErIEA"},"danube-bistro":{"name":"Danube Bistro","address":"Suite B","city":"Bellevue","state":"WA","zip":"98004","telephone":"(425) 452-8722","promotions":["Receive the second adult entrée of equal or lesser value in the party (party meaning 2 or more people) complimentary.","20% off total bill when dining alone","20% off on all 'To Go' orders","10% savings on banquets booked","18% gratuity automatically added"],"id":"danube-bistro","formatted_address":"Bellevue Square, Bellevue, WA 98004, USA","lat":47.6170372,"lng":-122.2041543},"demetris-woodstone-taverna":{"name":"Demetris Woodstone Taverna","address":"101 Main St.","city":"Edmonds","state":"WA","zip":"98020","telephone":"(425) 744-9999","promotions":["20% off total guest check(2 - 6 adults)","20% off total bill when dining alone","10% savings on banquets booked"],"id":"demetris-woodstone-taverna","formatted_address":"101 Main Street, Edmonds, WA 98020, USA","lat":47.812518,"lng":-122.382311,"rating":null,"gplaces_ref":"CoQBfQAAAGBwFe-wrHc8Yy_vP1HLMYX-wKsoKxAYtHcNo_s7wqTjHSU1BPf-pvgh8EShtjtf07SrTFSsNP4GhkiJTq95KYv7tYnAqyxlqhs1otrBesYuHemquwKXCcHtduVrRTysqqS142dGUjSunvVkGEA28DgjH5wGg34kI-nYUmpMCDijEhA0GkcsAZMGsSMGWtmcpnfmGhS3sEMvzOcGZuB8PMh2MwI6ZyWnkw"},"domani-pizzeria-and-restaurant":{"name":"Domani Pizzeria and Restaurant","address":"1515 Queen Ann Ave N","city":"Seattle","state":"WA","zip":"98109","telephone":"(206) 812-2222","promotions":["Receive the second adult entrée of equal or lesser value in the party (party meaning 2 or more people) complimentary.","20% off pizza if less than 2 non-pizza entrÃ©es are ordered","20% off total bill when dining alone","Not valid on lunch specials"],"id":"domani-pizzeria-and-restaurant","formatted_address":"1515 Queen Anne Avenue North, Seattle, WA 98109, USA","lat":47.6328,"lng":-122.35715,"rating":3.8,"gplaces_ref":"CoQBfwAAAEWieZmWjum6_r8teGElArUZ4b6yovGEpnF-izO-al_1TfB4WtwDKFWHu2L1wcvIQD4ZvbqSJY4Bcy4_SPSmdrM5zP4_xPCdi0R_4A6DVI4egDH4_4wW9N8Sye3c4xmfwkaDaJBhLteR50b0SBLRN-69xoOoZZ2DMqNhNfvRZgm_EhCNWJivNaVuzD0_T1uUqBhyGhQVtEuhwo1epYbEDkhlkQQ0A7sjOg"},"dragonfish-asian-caf":{"name":"Dragonfish Asian Caf","address":"722 Pine St.","city":"Seattle","state":"WA","zip":"98101","telephone":"(206) 467-7777","promotions":["Receive the second adult entrée of equal or lesser value in the party (party meaning 2 or more people) complimentary.","20% off total bill when dining alone","20% off on all 'To Go' orders","10% savings on banquets booked"],"id":"dragonfish-asian-caf","formatted_address":"722 Pine Street, Seattle, WA 98101, USA","lat":47.613146,"lng":-122.333496,"rating":3.8,"gplaces_ref":"CoQBdwAAAKxbZoPshjbISs-2r2fukn0-IulP6kiEyO29Cf_WGjncXyfkOGjucAZ_9cNcaurzDFzn97-q4wIjv9IQ4gFCyfid5mvSJXUaxN2a1k_HyJaoHQD9O_jvY8THqC9rA7YBR7TO9A75sWnDRgLQGi03yLorYgvuKksQvLcQER6_R-PLEhBdApyEWSu5Ih7O4J4cxU7iGhTGa3s2MwpaeUuG7ziRS-V6Fjzr9A"},"eastlake-bar-and-grill":{"name":"Eastlake Bar and Grill","address":"2947 Eastlake Ave. E","city":"Seattle","state":"WA","zip":"98102","telephone":"(206) 957-7777","promotions":["Receive the second adult entrée of equal or lesser value in the party (party meaning 2 or more people) complimentary.","10% savings on banquets booked"],"id":"eastlake-bar-and-grill","formatted_address":"2947 Eastlake Avenue East, Seattle, WA 98102, USA","lat":47.648584,"lng":-122.323838,"rating":3.8,"gplaces_ref":"CoQBdQAAAIXufmFRzRt7Z1KiqLaN4oshvaP0aqlnyYrOSU9_eByvjYylDueyobflPzo31vvNi8ROKLvqNt-qy0UKAfIDHqrFOBlWCD1RZh1MxN4YkAhClZ61P8tWGzyev0MJZ1sQtUKFfRfIOSuuG4L_wlREnMUW4wcCOK4ajsJ91lCoH-XYEhAwdBwhlrwDKDaoYcy8iIoIGhTlE26ag3NpNq8p5wMSpdU8nz7O0g"},"eastside-bar-grill":{"name":"Eastside Bar & Grill","address":"625 116th Ave. NE","city":"Bellevue","state":"WA","zip":"98004","telephone":"(425) 455-9444","promotions":["Receive the second adult entrée of equal or lesser value in the party (party meaning 2 or more people) complimentary.","10% savings on banquets booked"],"id":"eastside-bar-grill","formatted_address":"625 116th Avenue Northeast, Bellevue, WA 98004, USA","lat":47.61592,"lng":-122.186278,"rating":null,"gplaces_ref":"CoQBdQAAAAS1dGmoLCnk04val3f3s3wvoGuWRXj1EvHfmNe48liHwobB8KmLLxFEiUR2fIyFjy8HoEIbBr6G5ZnC6xBZYpWyYxIrKuLfxyqDqO3fu8koUq1bJUQEL6SMykmB5yAz6HoxsavTcac-bgKVW4ZQxnsPvPV8ebjdr_ankFHKE0g2EhBIahmqX87woID997plwVMZGhTEedJtqi8d9L3QYOD4snldHliPyA"},"edina-sushi":{"name":"Edina Sushi","address":"Suite A","city":"Lynnwood","state":"WA","zip":"98036","telephone":"(425) 776-8068","promotions":["20% off total guest check(2 - 6 adults)","20% off total bill when dining alone","20% off on all 'To Go' orders"],"id":"edina-sushi","formatted_address":"Lynnwood, WA 98036, USA","lat":47.8156217,"lng":-122.3269187},"epulo-bistro":{"name":"Epulo Bistro","address":"526 Main St.","city":"Edmonds","state":"WA","zip":"98020","telephone":"(425) 678-8680","promotions":["Receive the second adult entrée of equal or lesser value in the party (party meaning 2 or more people) complimentary.","18% gratuity automatically added","Not valid on Tuesday Tasting Menu"],"id":"epulo-bistro","formatted_address":"526 Main Street, Edmonds, WA 98020, USA","lat":47.810446,"lng":-122.376351,"rating":4.4,"gplaces_ref":"CnRvAAAAFnsXMHZhHtbyvCJIhIAQ5qtlSWA3nQaGbLdwmmMDR3UBFC0oKlpq6Kv5dusLx-tsab-zeJ0SHS5D7A791l0P8iZ5uyHF2gSwnUSrAznLavHzPh3Zrf4vJkTmHb1vyX_xWBHA_Znd9ZBNEZh_iHegABIQSPDR3vlzqiXHl9u6Inm8HRoURkAgIR3pQpSSNK0vFPVIFQrcyoo"},"ettas-seafood":{"name":"Ettas Seafood","address":"2020 Western Ave.","city":"Seattle","state":"WA","zip":"98121","telephone":"(206) 443-6000","promotions":["Receive the second adult entrée of equal or lesser value in the party (party meaning 2 or more people) complimentary.","18% gratuity automatically added","Valid at this Tom Douglas restaurant only"],"id":"ettas-seafood","formatted_address":"2020 Western Avenue, Seattle, WA 98121, USA","lat":47.610789,"lng":-122.343871,"rating":4.2,"gplaces_ref":"CnRpAAAAZyFbK2hFiFz3bSQsABpP1_XhVJphTTrwaszo1GNtRlW_xmf37EYOommLwZk6joAfRcGIynUaSHeGVULHvWmfXR0uRE4RlGNjbqtm6tJArSEP1Q9N9XvE9qqisn13sKlwV3tPwPconX5zZoKXCmfpaRIQvfo0UnTjOmeUUcH5e4nw5RoU0XV4b4HfC-M-D68AtVsITlRb_2A"},"europa-bistro":{"name":"Europa Bistro","address":"2515 N Proctor St.","city":"Tacoma","state":"WA","zip":"98406","telephone":"(253) 761-5660","promotions":["Receive the second adult entrée of equal or lesser value in the party (party meaning 2 or more people) complimentary."],"id":"europa-bistro","formatted_address":"2515 North Proctor Street, Tacoma, WA 98406, USA","lat":47.270715,"lng":-122.488704,"rating":4.1,"gplaces_ref":"CnRuAAAAZeetu6RYKHSf-PWUTn4sS6kZeOojeIN4p0bEmmNNHSXpoVlCLZ6TD3jUoVbkRR2P-WXvjF6TRdjCDcoDnqoy8NtyCmhJWHsfbKSAcjKCYHGImX2SXlUX2izTKfKBL1Dh2zDlqMVicnUELntFGiyo4RIQBWwF4kjkyDcKkQX7mHY4EhoUxai6euIayIzQi6S8C1p7v7ye13k"},"fx-mcrorys":{"name":"F.X. McRorys","address":"Suite 602","city":"Seattle","state":"WA","zip":"98104","telephone":"(206) 623-4800","promotions":["Receive the second adult entrée of equal or lesser value in the party (party meaning 2 or more people) complimentary."],"id":"fx-mcrorys","formatted_address":"#602, Seattle, WA, USA","lat":47.6587065,"lng":-122.3540954},"firecreek-grill-druids-glen":{"name":"FireCreek Grill @ Druids Glen","address":"29925 207th Ave. SE","city":"Covington","state":"WA","zip":"98042","telephone":"(253) 638-1200","promotions":["Receive the second adult entrée of equal or lesser value in the party (party meaning 2 or more people) complimentary.","20% off total bill when dining alone"],"id":"firecreek-grill-druids-glen","formatted_address":"29925 207th Avenue Southeast, Kent, WA 98042, USA","lat":47.33261330000001,"lng":-122.0659375},"firenze-ristorante":{"name":"Firenze Ristorante","address":"15600 NE 8th St","city":"Bellevue","state":"WA","zip":"98008","telephone":"(425) 957-1077","promotions":["Receive the second adult entrée of equal or lesser value in the party (party meaning 2 or more people) complimentary.","18% gratuity automatically added"],"id":"firenze-ristorante","formatted_address":"15600 Northeast 8th Street, Crossroads Bellevue, Bellevue, WA 98008, USA","lat":47.6173462,"lng":-122.1314793},"fireside-martini-and-wine-bar":{"name":"Fireside Martini and Wine Bar","address":"416 W Bakerview Rd.","city":"Bellingham","state":"WA","zip":"98226","telephone":"(360) 738-1000","promotions":["20% off total guest check(2 - 6 adults)","20% off total bill when dining alone"],"id":"fireside-martini-and-wine-bar","formatted_address":"416 West Bakerview Road, Bellingham, WA 98226, USA","lat":48.7903518,"lng":-122.4954962},"floyds-place":{"name":"Floyds Place","address":"521 1st Ave.","city":"Seattle","state":"WA","zip":"98109","telephone":"(206) 284-3542","promotions":["Receive the second adult entrée of equal or lesser value in the party (party meaning 2 or more people) complimentary."],"id":"floyds-place","formatted_address":"521 1st Avenue North, Seattle, WA 98109, USA","lat":47.623946,"lng":-122.355527,"rating":3.9,"gplaces_ref":"CnRuAAAAsBQ9hW4g895_VVm9f3E9z7aobaX0qKocc_qSwXx7j-PemuPZ2bqHRQ4AycL0XkAU3DAjOlQf1xiQop7infDnSGRZikT5GyfrY8k3upMhnadWCq2sY7JXJT96hvAvFxGBsFY1EnRlOOHMdRU3sK25KxIQDWOtLtyezwMQ0MEAcXR6DRoUF-cUZGk-uMHegN1i-11qiadHlWI"},"foleys-on-the-green":{"name":"Foleys on the Green","address":"7108 Lakewood Dr W","city":"Tacoma","state":"WA","zip":"98467","telephone":"(253) 473-3033","promotions":["Receive the second adult entrée of equal or lesser value in the party (party meaning 2 or more people) complimentary.","20% off total bill when dining alone"],"id":"foleys-on-the-green","formatted_address":"7108 Lakewood Drive West, Tacoma, WA 98467, USA","lat":47.196098,"lng":-122.514026},"forecasters-pub":{"name":"Forecasters Pub","address":"14300 NE 145th St.","city":"Woodinville","state":"WA","zip":"98072","telephone":"(425) 483-3232","promotions":["Receive the second adult entrée of equal or lesser value in the party (party meaning 2 or more people) complimentary."],"id":"forecasters-pub","formatted_address":"14300 Northeast 145th Street, Woodinville, WA 98072, USA","lat":47.73482749999999,"lng":-122.1488713},"fujiyama-japanese-steakhouse":{"name":"Fujiyama Japanese Steakhouse","address":"2930 Capital Mall Dr NW","city":"Olympia","state":"WA","zip":"98502","telephone":"(360) 352-9888","promotions":["Lunch Hibachi: $4.50 off 2nd HibachiDinner Hibachi: $10 off 2nd Hibachi","18% gratuity automatically added","Dine-in onlyNot valid on Chef's Special for Two"],"id":"fujiyama-japanese-steakhouse","formatted_address":"2930 Capital Mall Drive Southwest, Olympia, WA 98502, USA","lat":47.040317,"lng":-122.938546,"rating":3.6,"gplaces_ref":"CpQBhAAAAKRvKyHgf9qKTEJnfosNpCT5j9XO1LQ3M4e6gALZfK4CmlfAMmrFb7Koe14aiPukhxgpOxKDnRewZs-t89PMC0igntL5jvE66iIyKnoBh6Ws8DJAEX7_31woDHo_kKANVDuFS3HzoIWjAIYA72nnfwQlP8VAUHoaguC9wlC732VrhhzhxcuNy76e-Z1LazMFYhIQW1ojHCaLPPAunn_HD-n5uhoUqVUQF-jWGDFtJ6d7ttGAE0oc9CQ"},"fujiyama-japanese-steakhouse-2":{"name":"Fujiyama Japanese Steakhouse","address":"9989 Silverdale Way","city":"Silverdale","state":"WA","zip":"98383","telephone":"(360) 592-5888","promotions":["Lunch Hibachi: $4.50 off 2nd HibachiDinner Hibachi: $10 off 2nd Hibachi","18% gratuity automatically added","Dine-in onlyNot valid on Chef's Special for Two"],"id":"fujiyama-japanese-steakhouse-2","formatted_address":"9989 Silverdale Way Northwest, Silverdale, WA 98383, USA","lat":47.65352,"lng":-122.690997,"rating":null,"gplaces_ref":"CoQBfQAAAEGZ5ikobv8AefIiV7Um2fKOQUSyea4JzshGCFaH44ioJgkW09U4lBuDkacXDP1cohdK9X_VHmTsOnyDD7242P5mMSVsEWLpd1w8PSBtCZEPSz0GTJCbCBrRO6y9kpCZGG7wVSqmr1RJmzrHBNrEBAB9s2v3B7_PZBlrDdsN_uqsEhDOIDjmiz-TldoCmEq0uW6nGhToup1PNigzbNVGkD1JhAKl9q9-KQ"},"fumaca-brazilian-steakhouse":{"name":"Fumaca Brazilian Steakhouse","address":"101 Denny Way","city":"Seattle","state":"WA","zip":"98109","telephone":"(206) 453-4366","promotions":["20% off total guest check(2 - 6 adults)","20% off total bill when dining alone","Lunch Fri-Sun only"],"id":"fumaca-brazilian-steakhouse","formatted_address":"101 Denny Way, Seattle, WA 98109, USA","lat":47.618984,"lng":-122.354374,"rating":null,"gplaces_ref":"CoQBfgAAAFx0TbAjoaIA9xxxFghX2DnvxSj_nFjGy42wnmm8LlVEiqLH0umqfbPYNn5qhfpjuEiAHyfYPMCwyPznPFCfR4MGVtN96GoI1l-mEwq9OLrnsSiIa8JlTxADi5gGXnYnWSo-u4W10weQGlVu4_dv2mOSKhuRxHYUwSiD8BENFzu5EhCdYNTTG9UVr6laAOD3Qh9BGhRzts9LizawCA4qJhCdmOM2Cw60Uw"},"giuseppes-al-porto-ristorante-italiano":{"name":"Giuseppes Al Porto Ristorante Italiano","address":"21 Bellwether Way","city":"Bellingham","state":"WA","zip":"98225","telephone":"(360) 714-8412","promotions":["Receive the second adult entrée of equal or lesser value in the party (party meaning 2 or more people) complimentary."],"id":"giuseppes-al-porto-ristorante-italiano","formatted_address":"21 Bellwether Way, Bellingham, WA 98225, USA","lat":48.754876,"lng":-122.496224,"rating":4.1,"gplaces_ref":"CpQBigAAAPq_EcUvnuHw2b_jbZZq1rvFHL0IlzTd0VU2wq2EI-_VziZR9nDrkdm0MHxGOyZnnItloHvoFHju3pgohhsNc0VO2QKZG_0dROy6NYw7EBjQLIwmwm1Lqgkuem977Yvz_NyVE8w2tPjRlNx7uW3LVcV2CZARIv8t0n7Si1Nu2CsiUXq5GPYNzRawLwpFg1Kv8hIQ_7DZIlEQWW78wcNvAzX8KhoUE2xpu5_0sffqF6sgboRk9p77R8g"},"grazie":{"name":"Grazie","address":"23207 Bothell-Everett Hwy. SE","city":"Bothell","state":"WA","zip":"98021","telephone":"(425) 402-9600","promotions":["Receive the second adult entrée of equal or lesser value in the party (party meaning 2 or more people) complimentary."],"id":"grazie","formatted_address":"23207 Bothell Everett Highway, Bothell, WA 98021, USA","lat":47.787084,"lng":-122.21885,"rating":4,"gplaces_ref":"CoQBfAAAAG8bIlq1ruzMbUGDbLQhS8QL7clT1iPSAp9sMC4opng6KRt7rJGED6kLXrr4xvs4hFMjPf-wc654gwTA_6ojAUvIlYtbbelvrgI4bTBBYBPFnX2O0nStps8zk7Zw3j6XMVifheeP7AEI6zJBJXZVvuJ3XQKYkR0VD-_iKDPWdJ1oEhAuJAkydG-cmHZUx4y457zRGhQiPO8kAYa06tcuPVuRUwb0yGf7Vg"},"grazie-caffe-italiano":{"name":"Grazie Caffe Italiano","address":"16943 Southcenter Pkwy.","city":"Tukwila","state":"WA","zip":"98188","telephone":"(206) 575-1606","promotions":["Receive the second adult entrée of equal or lesser value in the party (party meaning 2 or more people) complimentary."],"id":"grazie-caffe-italiano","formatted_address":"16943 Southcenter Parkway, Tukwila, WA 98188, USA","lat":47.451029,"lng":-122.263144,"rating":4.1,"gplaces_ref":"CoQBcwAAAGoKN6yA5JcKPS8L62r21jLdIKnFHadqVVhF0Sl0iPSq76n1fx6JzUQkUlYreqXUJLxRk2FIR1kNjErD3aQ_MMIFX_da2TnhhCyKGfQVg0EQDE4tO6m31Bcg4QO_ObNdPmEE1ClJWD269weq_DoU3ebYZfslocny4nUHS0pWX5pfEhBrYminkk76oam-jP3CNaZ6GhTiaAkBsqS-EjWEj6VNZGmvQmYQ-Q"},"grazie-caffe-italiano-2":{"name":"Grazie Caffe Italiano","address":"16943 Southcenter Pkwy","city":"Tukwila","state":"WA","zip":"98188","telephone":"(206) 575-1606","promotions":["Receive the second adult entree of equal or lesser value in the party (party meaning 2 or more people) complimentary.  "],"id":"grazie-caffe-italiano-2","formatted_address":"16943 Southcenter Parkway, Tukwila, WA 98188, USA","lat":47.451029,"lng":-122.263144,"rating":4.1,"gplaces_ref":"CoQBdAAAAGBK2GOSh-WJ8o_ZUL_EWmwTXenHn3W0IK0AG0Dsj6uIqAbtVx2yFwAS2mRtGcm2Yzf30syHdzmIjPFNvlk8rwFoNlMqWQEnEWm3RoSYVSZCJQ4dCFLaayfSCsQeAjok76DTVuRpoYeoZHUoq1zHowXNwrGwANoLaN95fp6hRTR1EhDKlPUrJL5skLkKmDjLjK9OGhRVPWpBnZQA5jjQaWLmVh-qIvgVOQ"},"greenhouse-restaurant":{"name":"Green.House Restaurant","address":"4793 Point Fosdick Dr. NW","city":"Gig Harbor","state":"WA","zip":"98335","telephone":"(253) 514-6482","promotions":["Receive the second adult entrée of equal or lesser value in the party (party meaning 2 or more people) complimentary."],"id":"greenhouse-restaurant","formatted_address":"4793 Point Fosdick Drive Northwest, Gig Harbor, WA 98335, USA","lat":47.3018413,"lng":-122.5787906,"rating":null,"gplaces_ref":"CpQBgQAAAKY9js28Wp4GJv6dc9HabfhOGgKIc7JTtpk6YayB6cLKjc2gmb3UYTOxtvyAOwtdgfZqYvT7ofLI7TQAoh78bijUz1pr-jVwIAcYLu36fT9RI8hyW7h6qp6iZIJcUULZ1C0AskroQ20-DV19h0kkj27p6IzBIn2a6ZA042JBVZEo7Ra0PY52l6E2m67TfngjUhIQEFNsL0EdiJt0ywaAOQocTxoU1VTQddUKcJpPu2GW2yZDyuh2W7w"},"greenlake-bar-grill":{"name":"Greenlake Bar & Grill","address":"7200 E Greenlake Dr N","city":"Seattle","state":"WA","zip":"98115","telephone":"(206) 729-6179","promotions":["Receive the second adult entrée of equal or lesser value in the party (party meaning 2 or more people) complimentary.","10% savings on banquets booked"],"id":"greenlake-bar-grill","formatted_address":"7200 East Green Lake Drive North, Seattle, WA 98115, USA","lat":47.680445,"lng":-122.325731,"rating":3.7,"gplaces_ref":"CoQBdwAAAPt6bhcyZEzNAQ_Ul92TBghNg7az_mNoUl3xDwuLz7jX7p6BqqIppZCUanXruEoy8YnRSgjfci_4FQ1imu6JJu5J7tGCmutChL2noHuwNUYGg76iioximrcQAjRayNmYldeWwcA1BhTugxCttKW4zxkRt8Jfz0nIbaAHLDgqXpmmEhBzKyXk3IVGoCV-citXcpKzGhREfO-HK116H8UGkMoexS-PJm5Ehw"},"hook-plow":{"name":"Hook & Plow","address":"2100 Alaskan Way","city":"Seattle","state":"WA","zip":"98121","telephone":"(206) 256-1040","promotions":["Receive the second adult entrée of equal or lesser value in the party (party meaning 2 or more people) complimentary."],"id":"hook-plow","formatted_address":"2100 Alaskan Way, Seattle, WA 98121, USA","lat":47.61066599999999,"lng":-122.346573},"icon-grill":{"name":"icon Grill","address":"1933 5th Ave.","city":"Seattle","state":"WA","zip":"98101","telephone":"(206) 441-6330","promotions":["Receive the second adult entrée of equal or lesser value in the party (party meaning 2 or more people) complimentary.","20% off total bill when dining alone"],"id":"icon-grill","formatted_address":"1933 5th Avenue, Seattle, WA 98101, USA","lat":47.613501,"lng":-122.339067,"rating":4,"gplaces_ref":"CnRrAAAAy3nf49HHve0JLNK-a0D1Jxo8dgEfq9e-5dGXYc34rEV4YaeosL4r5MGggRBSLMEqlwffjdOIdYmVmU3-X7xEKy6INWOZC_5CfkKXeZMxw_Dmgd1sesQluBqdgKXbucxCpdX2BU3pkd-96MKN_S2EIBIQZ4sCwo1HAb2cfIv4SSuXbxoUMytpBCNtVPdOqEhuH2B8Vt-_72o"},"il-bistro":{"name":"Il Bistro","address":"93 Pike St.","city":"Seattle","state":"WA","zip":"98101","telephone":"(206) 682-3049","promotions":["Receive the second adult entrée of equal or lesser value in the party (party meaning 2 or more people) complimentary."],"id":"il-bistro","formatted_address":"93 Pike Street, Pike Place Market, Seattle, WA 98101, USA","lat":47.608614,"lng":-122.340281,"rating":4.2,"gplaces_ref":"CnRqAAAAHvccVvbssgLmvZ_xCvgH9Hrt6aOBHSTPoCeY_y0BKuX2DjbV-m_ux61e25XF2jRVMAthjkpQbQ4f7zmzlbrsXnjaH4NGRNWnFofV481q98yA4LkAlKLYKqiRgU5eysqGUUQMBEwkgJiVkIjMeAEEiBIQ-LYWq9dpy3vS72W2ovfIpBoUPG6xYRLGEc0mVpZ_0hVYjG0T9Jk"},"indigo-kitchen-alehouse":{"name":"Indigo Kitchen & Alehouse","address":"2902 164th St SW","city":"Lynnwood","state":"WA","zip":"98087","telephone":"(425) 741-8770","promotions":["Receive the second adult entrée of equal or lesser value in the party (party meaning 2 or more people) complimentary."],"id":"indigo-kitchen-alehouse","formatted_address":"2902 164th Street Southwest, North Pointe Shopping Center, Lynnwood, WA 98087, USA","lat":47.849345,"lng":-122.272682,"rating":4.1,"gplaces_ref":"CoQBfQAAAHq4ggmfhPhNlBNO3LACvB0jm7cIHnEAeWqSqZu7or2TkT4IupEvcCtIctaQN7HSV-neVAMwnAH8OQAuXCf0Hxyi2ENyRiUWV4aJYRxO_xLA6OpdfRzWHdm7D36akpflc4e9wblNZsWuCo9Hr5Z5FUhJG4Z3emgZOEh5u2oU5_xcEhBdCgysmDpvkRZg_7NF0W2xGhRCLAs2vnaO76_KjWSVlCgeQxJGwA"},"jade-dragon":{"name":"Jade Dragon","address":"17181 Redmond Way","city":"Redmond","state":"WA","zip":"98052","telephone":"(425) 883-1828","promotions":["20% off total guest check(2 - 6 adults)","10% savings on banquets booked"],"id":"jade-dragon","formatted_address":"17181 Redmond Way, Redmond, WA 98052, USA","lat":47.670288,"lng":-122.110981,"rating":3.5,"gplaces_ref":"CoQBdAAAAIihV02I6LBfbwRGlyft7j3f9QBU1q3UNTagVIjgOih8GxffCoM9pRTSff0VCf0LckxYXBqAuSX1D9ctPe5B-zQW8_nz4EAagyeTEXoXU9nkrewYEwtov0a2pkHmZqoZK4R2pz-mNiMDLXW5UGS9C5pyB-v7NIW8fhu7CK_CoYOeEhDEAw6A5VJNdT4iZfGGcgvLGhQ69HGzi-kMkKUK4I5QM52U-terDA"},"jewel-of-india":{"name":"Jewel of India","address":"4735 University Way NE","city":"Seattle","state":"WA","zip":"98105","telephone":"(206) 523-5275","promotions":["Receive the second adult entrée of equal or lesser value in the party (party meaning 2 or more people) complimentary.","20% off total bill when dining alone","20% off on all 'To Go' orders","10% savings on banquets booked"],"id":"jewel-of-india","formatted_address":"4735 University Way Northeast, Seattle, WA 98105, USA","lat":47.664103,"lng":-122.313197,"rating":4.1,"gplaces_ref":"CnRwAAAAMqdUHs6-MZuNcx339ZRaV-2WiUYqPgSm5KXedfW7u859qin_lFf62T1UMJ75AU7iJkGE57AsTfp1cgYdwW8p07YV8AoSrAaUMKL18iksR_HFOH2SiiQSnS_9KlyFAxo2m_OnYUD77gKqpwFxqRnwHRIQIxFbYBvDzwiWC4uRE7EKfhoUoQZvkcM2H4A21gYJxK9HcCsNDyM"},"joeseppis-italian-ristorante":{"name":"Joeseppis Italian Ristorante","address":"2207 N Pearl St.","city":"Tacoma","state":"WA","zip":"98406","telephone":"(253) 761-5555","promotions":["Receive the second adult entrée of equal or lesser value in the party (party meaning 2 or more people) complimentary."],"id":"joeseppis-italian-ristorante","formatted_address":"2207 North Pearl Street, Tacoma, WA 98406, USA","lat":47.267917,"lng":-122.513888,"rating":3.8,"gplaces_ref":"CpQBigAAAKHNDXl6c_f9vYLoYWB-BXk03Ah8sbDYI88Y0SD4L0eoNSUx1u_G3NnUC9sj6PPN-cOynHBzZIu_pL-oGe2E2vabIbWjJgAjpH6M7kyYU1qWQb5vNGxCXasFpVo96JO2urqS22KCgS8FAZZC9XfqnpcTYQMdSG3dLGGsdwvSq3XAkys5TJay29j1Ba_hp0qHLBIQ1IjQq90bSJ5RzG3k233SphoUSblhFGP1VujwKrgQF_ctzjSE70A"},"johnnys-at-fife":{"name":"Johnnys at Fife","address":"5211 20th St. E","city":"Fife","state":"WA","zip":"98421","telephone":"(253) 922-6686","promotions":["Receive the second adult entrée of equal or lesser value in the party (party meaning 2 or more people) complimentary."],"id":"johnnys-at-fife","formatted_address":"5211 20th Street East, Fife, WA 98424, USA","lat":47.239774,"lng":-122.358659,"rating":3.9,"gplaces_ref":"CoQBfAAAAHJRZMvIo5RNcPLaaU6JHSUKyAfGpNJPrUP33IPr7VZLcjRo1G_w_Y1bV0VPFZNcjivGN4Gj7f7KYOzEpylLWvRyqc8Q1PdmXuwIk26ac8hWwS13q5dX9NZ8LPrJ_6WcrStdvrQer2pOIXfliU1Gm6emrUz6aSNjtaqg8WADfN3pEhDgWBlM7LikR1ElyGKC8rJVGhS8os9BJdkJrxV6hSMdErF6zb970g"},"johnnys-dock":{"name":"Johnnys Dock","address":"1900 E D St.","city":"Tacoma","state":"WA","zip":"98421","telephone":"(253) 627-3186","promotions":["Receive the second adult entrée of equal or lesser value in the party (party meaning 2 or more people) complimentary.","20% off total bill when dining alone"],"id":"johnnys-dock","formatted_address":"1900 East D Street, Tacoma, WA 98421, USA","lat":47.245753,"lng":-122.431113,"rating":3.8,"gplaces_ref":"CpQBhAAAAOM3FdYxqaJc0qJm6sPGQtwdqA-iio59XW1uCt7XL4gpiIrVF-RfIH9OOqbSq6tnydYjd1gYN_IXtQHuQLUhe3QEL9NrBJKDdCtLhLLOsLAYZ_dhS8_gjQylnVl00EGSgMR2u3VCo7LS1FiducoHTS-7_5BMxvAIDM8JwyYdsXFysUTLvM_5B4dSgvI_aFGBkRIQZIFXj4CB0hCQRahomQWoqBoU50XOuZIXyqX50rLznWdvF8cuiv0"},"juno":{"name":"JUNO","address":"700 3rd Ave.","city":"Seattle","state":"WA","zip":"98104","telephone":"(206) 631-8080","promotions":["Receive the second adult entrée of equal or lesser value in the party (party meaning 2 or more people) complimentary."],"id":"juno","formatted_address":"700 3rd Avenue, Seattle, WA 98104, USA","lat":47.603753,"lng":-122.332101,"rating":3.5,"gplaces_ref":"CnRlAAAAeXJIrGCO5YR1ao3wYfdwgY04zQk5JSyftYrSdXo9AITCku7Sf6C4jgOn5GwyJnELi8BCHnfaFMEQ7LbJvji_YgW6NiV_wAN3qCdFH8-LHDbWD0sGJWstT7DUkQhhJnXHoOMZX3V4TiUp-5dSlOmbEBIQEWeoz6RxFOgV1ODax0SudhoU74kCvXkjPJHxcFgg_eTbgpQdVTs"},"kaf-neo":{"name":"Kaf Neo","address":"15130 Main St. Ste 100","city":"Mill Creek","state":"WA","zip":"98012","telephone":"(425) 357-0512","promotions":["20% off total guest check(2 - 6 adults)","20% off total bill when dining alone","10% savings on banquets booked","18% gratuity automatically added","This location only"],"id":"kaf-neo","formatted_address":"15130 Main Street #100, Mill Creek, WA 98012, USA","lat":47.860286,"lng":-122.220629,"rating":3.9,"gplaces_ref":"CnRpAAAA9Stva8B9HPW7GszWMOnwLzdiaAfcll3zgeMhEFA-NXU_9um--Wm-OHNtdJm0ddU1T0Zh2UNSqmAIMosS4dq4AIZjxWmP3golv8OTZOzBSDENYFCU1yjg6JzTmwhB1sx1Nfvi0vI2sprtBp1FtDlwoRIQuaw8BsnSH2gIfoGtfMXlKRoUv1tXtY3_hH5fuO68lDuqjRJ2r1Y"},"kayak-bar-and-grill":{"name":"Kayak Bar and Grill","address":"19803 1st Ave. S","city":"Normandy Park","state":"WA","zip":"98148","telephone":"(206) 429-3145","promotions":["Receive the second adult entrée of equal or lesser value in the party (party meaning 2 or more people) complimentary."],"id":"kayak-bar-and-grill","formatted_address":"19803 1st Avenue South, Normandy Park, WA 98148, USA","lat":47.425127,"lng":-122.335616,"rating":null,"gplaces_ref":"CnRoAAAA4dpCwJUMssCdgKhoXcwDNFmC5hH_mEPBVz5ux839wUFUMaGrinb2QUFedtfqTKVNeSSivCYR_EtId2Y5Wqc0weURFrDICGOLyJo32t84D77oK-MOdDXJAHiRiVqgQrYgb-7VQc8HDWtakDsrGUN7lRIQzj0__N3AOGQTkmqpi4ZsXxoU_hH_jK4gJbGotdAJYlIrkuexm6I"},"kuru-kuru-sushi":{"name":"Kuru Kuru Sushi","address":"11 Bellwether Way","city":"Bellingham","state":"WA","zip":"98225","telephone":"(360) 392-8224","promotions":["20% off total guest check(2 - 6 adults)","20% off total bill when dining alone"],"id":"kuru-kuru-sushi","formatted_address":"11 Bellwether Way, Bellingham, WA 98225, USA","lat":48.75556,"lng":-122.494806,"rating":null,"gplaces_ref":"CoQBcQAAAEjvLL4iMORv_bGKlYhjQxhSIUvGeyDIgJlMoDcjR4v08b1hECXjcsa7IrXbxjpKU97oF1myMalMV2dev2Br7Fnu8YlVE5pDjCdjuc1sfSfERegcAvJwYnBizXOi9jTJzrBujkgGG69AplX40MF2z7frKYDQ37NqCdSvESVOxhk7EhAC2nMRGFtZtQZ_BeiNyEFSGhS0JruZv1gqqxzUCFkswNQxyT9XYg"},"kyoto-japanese-steakhouse":{"name":"Kyoto Japanese Steakhouse","address":"115 N Samish Way","city":"Bellingham","state":"WA","zip":"98225","telephone":"(360) 756-0058","promotions":["20% off total guest check except when ordering Hibachi (2 - 6 adults)","20% off total bill when dining alone","Hibachi savings $15 off 2 dinner/$5 off 2 lunches"],"id":"kyoto-japanese-steakhouse","formatted_address":"115 North Samish Way, Bellingham, WA 98225, USA","lat":48.736304,"lng":-122.470069,"rating":4.1,"gplaces_ref":"CoQBewAAAOiQ9_3Q6ezH4dPmXT0QX1-KwF29b_qwdqZ2M4eb6aYnVOOjcn_R7YnRdahDbfPTZFqkXhDOzNae1svIwkotIbQhSljBMa8x6SMLK7owJ2hGbnvoOZet-vw-p39WCrF8gImhnxA2UiJ5q0lxud9I6ws_dtbP5CUwoLmB7CiR31NuEhC-BHCE-qD3c9NJjJFmO9zaGhSlVW2sAsZMMhblpe8FJied5pvRxA"},"la-conner-seafood-prime":{"name":"La Conner Seafood & Prime","address":"614 S 1st St","city":"La Conner","state":"WA","zip":"98257","telephone":"(360) 466-4014","promotions":["Receive the second adult entrée of equal or lesser value in the party (party meaning 2 or more people) complimentary.","18% gratuity automatically added"],"id":"la-conner-seafood-prime","formatted_address":"614 1st Street, La Conner, WA 98257, USA","lat":48.39008,"lng":-122.497778,"rating":4.2,"gplaces_ref":"CpQBhQAAAP2iUw29KezYM1H-vyMC3ehOZCFMipxusQgVyFPG6TfwI9gu8vD7jXbZrX8tSZYUo8BEdQc5YdPEgYSQVZOhneUfseyZ_nuzexGd5iLKmpaJImN0n2wAMysaPNwEXhwz1dAK1Z5_lVRRFJBNi9rcBZvjFWYcMTS134zh2BLhqN561bni80IOlbKoHdP74ahS9RIQ43dDqWhKLqNY8KJ5_C1PAhoUd8t-mNoCCXv00Yn3sjnfit-lwUY"},"la-galleria":{"name":"La Galleria","address":"546 5th Ave S","city":"Edmonds","state":"WA","zip":"98020","telephone":"(425) 771-7950","promotions":["Receive the second adult entrée of equal or lesser value in the party (party meaning 2 or more people) complimentary.","18% gratuity automatically added"],"id":"la-galleria","formatted_address":"546 5th Avenue South, Edmonds, WA 98020, USA","lat":47.806388,"lng":-122.378103,"rating":4.1,"gplaces_ref":"CpQBjgAAAMRQXvE3QxxVDplLxEiPQYHjRUhxHTY9LyN3hFhZJt1_arsNM5SolkA5lhvgwYSE65ygpfqRbFv5eFD6yzEOT0NGvHeDqQBkh2043p8pMZ1U3JxPZ3MOsX9v0dxHca6gFI7SweF4lCtSAmxR1pa06DBtTFPhHO8SajEs3JU6DNOaEJVC6uRnyMZqQXAjoWtCbhIQ8CeVOLKismCJjF2kIC60mhoUrpFGkXjwnJaMdjOY5bCqgLeneQo"},"la-isla-redmond":{"name":"La Isla  Redmond","address":"16505 Redmond Way","city":"Redmond","state":"WA","zip":"98052","telephone":"(425) 298-0374","promotions":["Receive the second adult entrée of equal or lesser value in the party (party meaning 2 or more people) complimentary."],"id":"la-isla-redmond","formatted_address":"16505 Redmond Way, Redmond, WA 98052, USA","lat":47.67324,"lng":-122.120256,"rating":4.1,"gplaces_ref":"CoQBcQAAAMA0RBCyrOgYRAfb0M9WPUiJjH2qlOV0EqtexqkaFvxG6A7A3cDVF6BKpeCWBSniX2ITBxwUlcRIFiEdv4TC1yOIG9yfEWyKqwe7sRNP6sGj5wSE2PtubPBguDp-u9mQPUn_vEugRolirr7uVxFAK5qdZCjFpn38IFBnpLDPGQ1GEhClYtteeBzyGWrujxC_bYVVGhSuvuCtXYqlSOqLq9TC53q-txPXsw"},"la-isla-seattle":{"name":"La Isla  Seattle","address":"2320 NW Market St","city":"Seattle","state":"WA","zip":"98107","telephone":"(206) 789-0516","promotions":["Receive the second adult entrée of equal or lesser value in the party (party meaning 2 or more people) complimentary."],"id":"la-isla-seattle","formatted_address":"2320 Northwest Market Street, Seattle, WA 98107, USA","lat":47.668809,"lng":-122.38718,"rating":4,"gplaces_ref":"CoQBcQAAAO2Ba0k9eQ5FqoZXAnjvQDk7d8U8E2sYE9vqMtGtDa5w2X1dp4XpJ9LsiAQHcS_SPJweJtCOI_T8dyOmvOAFmYR7npU5Pn_OGM08vngLU4J2TUV0GXUPC-UMMkuvgOdpH4YA1yMDN70vFPoiIkZh_gmISloX3krTgG-uZE4KmXlxEhDs2raEXjgvh2KnNy5OhsG3GhRK6AJM3UFyYt92bQdH4RZ95vMIlQ"},"la-palma-family-mexican-restaurant":{"name":"La Palma Family Mexican Restaurant","address":"5701 Lakewood Town Ctr. Blvd. SW","city":"Lakewood","state":"WA","zip":"98499","telephone":"(253) 582-8349","promotions":["Receive the second adult entrée of equal or lesser value in the party (party meaning 2 or more people) complimentary."],"id":"la-palma-family-mexican-restaurant","formatted_address":"5701 Lakewood Towne Center Boulevard Southwest, Lakewood, WA 98499, USA","lat":47.165252,"lng":-122.511893,"rating":3.6,"gplaces_ref":"CoQBfQAAAAaQNBYBeIVrqVhXj9PteV5fgj1iK_9sghueZGArY9LH9fBx8CBVj8YT8R76gOHDLQ261OP6EbAVKb-4PHqjWD68iAh5cT14B-XelQ5ui2gjv2GFdTr1_9E6SV2_TM4l--1yRBqxOo4sxvkg0l2lygkwdriixPc6iDICWuYm4fpQEhAmILgbx5PpQ94O08snSi_7GhS0Hwbxm0xgwc950LaE6-Ged19JmQ"},"la-palma-mexican-restaurant":{"name":"La Palma Mexican Restaurant","address":"3456 15th Ave. W","city":"Seattle","state":"WA","zip":"98119","telephone":"(206) 284-1001","promotions":["Receive the second adult entrée of equal or lesser value in the party (party meaning 2 or more people) complimentary."],"id":"la-palma-mexican-restaurant","formatted_address":"3456 15th Avenue West, Seattle, WA 98119, USA","lat":47.65204,"lng":-122.375834,"rating":4,"gplaces_ref":"CpQBgwAAAP-sNyiuf6M8j9z0ywMGfyuvbkDLqvCVUZr47lagw2dL4bEwdUffvXMkQWO4IKCFL9srq1pqGY_1-lP_hrnR8toolK3jiqTy7_FQsG_7pCf55Rks9Vn2dor6PlVDiAhccTGM_jz68tpc-ygLtfBsMjZ05CdHjCX3RQgAq7F_G888xXd9LWYjOU3VRyAxUwDcihIQrQY8oOeHcUXcL3YFDifoYxoUQeYWWgm5rW9vnvbPX9mQwFPw6Bw"},"lake-forest-bar-grill":{"name":"Lake Forest Bar & Grill","address":"17535 Ballinger Way NE","city":"Lake Forest Park","state":"WA","zip":"98155","telephone":"(206) 364-1261","promotions":["Receive the second adult entrée of equal or lesser value in the party (party meaning 2 or more people) complimentary.","10% savings on banquets booked"],"id":"lake-forest-bar-grill","formatted_address":"17535 Ballinger Way Northeast, Lake Forest Park, WA 98155, USA","lat":47.7544938,"lng":-122.2777796},"lanna-thai":{"name":"Lanna Thai","address":"7825 Evergreen Way Ste. B","city":"Everett","state":"WA","zip":"98203","telephone":"(425) 438-3888","promotions":["Receive the second adult entrée of equal or lesser value in the party (party meaning 2 or more people) complimentary.","20% off total bill when dining alone","20% off on all 'To Go' orders","Not valid on Lunch Specials"],"id":"lanna-thai","formatted_address":"7825 Evergreen Way, Everett, WA 98203, USA","lat":47.926782,"lng":-122.222342,"rating":4,"gplaces_ref":"CoQBdwAAAN2laEP5lCk7SwjOakrZFShnZAS91xNUwW5DBwy1cOGe5woqmflqnViDs53-zpTrjoBJAnB4JBeKjZ4UUkECwjxu4pj2-2Ncv6hylUlXlNjYMcNfaVdGe5CeJJW4ix28iY4bJqNmZMOhFhLf0XcuqemTkvoLUyXXLjlqlWy8zia4EhCrD99qhCQAKluCnA1wwAyyGhQ0F8YoUC8D-8oDT8raDM6qXRDJDA"},"library-bistro-and-bookstore-bar":{"name":"Library Bistro and Bookstore Bar","address":"92 Madison St.","city":"Seattle","state":"WA","zip":"98104","telephone":"(206) 624-3646","promotions":["Receive the second adult entrée of equal or lesser value in the party (party meaning 2 or more people) complimentary.","Dinner is served in the Library Bistro Bar","20% off total bill when dining alone","20% off on all 'To Go' orders"],"id":"library-bistro-and-bookstore-bar","formatted_address":"92 Madison Street, Seattle, WA 98104, USA","lat":47.604587,"lng":-122.336756,"rating":4,"gplaces_ref":"CnRvAAAA-JTW4R5Kfqn5pU64s_aaoa8fp8wTFs3yItWPApisIk0Qrm3Ky5IQtvYGvp-xvsZgfDft3DKsgRmyhm5OOg0My4oy5fVVzO_PqrXPwNqe1fX-laUmxQlf2O3stiEXw29J1ukcTCXf0kkrCYD8eERhpBIQiLfmKjZ1hHxDSKiC4Ob0UxoUXS2we5LIgCGSbuuX5KuwIMaEFNM"},"lighthouse-bar-grill":{"name":"Lighthouse Bar & Grill","address":"One Bellwether Way","city":"Bellingham","state":"WA","zip":"98225","telephone":"(360) 392-3200","promotions":["Receive the second adult entrée of equal or lesser value in the party (party meaning 2 or more people) complimentary."],"id":"lighthouse-bar-grill","formatted_address":"1 Bellwether Way, Bellingham, WA 98225, USA","lat":48.754129,"lng":-122.49704},"lombardis-italian":{"name":"Lombardis Italian","address":"19409 Bothell Everett Hwy","city":"Bothell","state":"WA","zip":"98012","telephone":"(425) 892-2931","promotions":["Receive the second adult entrée of equal or lesser value in the party (party meaning 2 or more people) complimentary.","Italian Supper Club $8.50 off 2nd Prixe Fixe when 2 entrÃ©e are not ordered","18% gratuity automatically added"],"id":"lombardis-italian","formatted_address":"19409 Bothell Everett Highway, Bothell, WA 98012, USA","lat":47.821737,"lng":-122.207257,"rating":3.6,"gplaces_ref":"CoQBeAAAAMNkjZLs4X5utoLEpu_kIOOA4NE-evcXBNGf6fxab3kTBNu0mCdmXIBmwARwCpjCZy_tN7EUDG6SbLGVBrMotuF-x0HTWCNDkcckv40rLUMxekT3Y6SCF9A0WgaZmxbjthY9krnbOIfXr0MaAMkhkNNfzTVjgljXBpV55il3KBMxEhCujKFxblwSqjbX05sunDKDGhT_fAd_N2SuEl_5IyBsf53orqiLxA"},"lombardis-italian-2":{"name":"Lombardis Italian","address":"1620 W Marine View Dr","city":"Everett","state":"WA","zip":"98201","telephone":"(425) 252-1886","promotions":["Receive the second adult entrée of equal or lesser value in the party (party meaning 2 or more people) complimentary.","Italian Supper Club $8.50 off 2nd Prixe Fixe when 2 entrÃ©e are not ordered","18% gratuity automatically added"],"id":"lombardis-italian-2","formatted_address":"1620 West Marine View Drive, Everett, WA 98201, USA","lat":47.995774,"lng":-122.213939,"rating":3.9,"gplaces_ref":"CpQBigAAADy6H6fwad9XPWqcCnknz46IRC7s0g35Gosk2C-t0d11ObOF6qZVlASj1JrKqfFchlDtfc-Y9P0b3Ns8VxqXnE4O04_5DI0_TI2iGfBAlnX575Xxhd_iwmYQ9pUGno32sJtRGC3ZLSPYg8fDdsEuCSbs-Ey3zQoL8Aa79FHuD5YXOXS_3ashhylj7lKmndwrwBIQ892kaw7LbS_yNA45zIN2zRoUSmZcBBTuoItks_ZF1wzocTv91AI"},"lunchbox-laboratory":{"name":"Lunchbox Laboratory","address":"1253 Thomas St","city":"Seattle","state":"WA","zip":"98109","telephone":"(206) 621-1090","promotions":["Receive the second adult entrée of equal or lesser value in the party (party meaning 2 or more people) complimentary."],"id":"lunchbox-laboratory","formatted_address":"1253 Thomas Street, Seattle, WA 98109, USA","lat":47.620692,"lng":-122.331384,"rating":4,"gplaces_ref":"CoQBdQAAAJTqW1CGRs-y-R4S7qz-kkKObdYUBppCqkL6l1DkPqVndgvbVTc1DKuuWnyXsWFQTusPd9GnVDsVrmY6Cf996Xzchq0zfrnYs0msIQO9_ckl03Q31uvThp_-FRY0hSJToEiV1puFG6RN19GjcwVCLaSXSqE66eKxpByluC16TfOFEhAg1flMdS7sGkF1GnMbwYYNGhRASdaUoe-UHSHGsddSs3VwBT1Y9Q"},"lunchbox-laboratory-2":{"name":"Lunchbox Laboratory","address":"4901Point Fosdick Dr NW","city":"Gig Harbor","state":"WA","zip":"98335","telephone":"(253) 432-4061","promotions":["Receive the second adult entrée of equal or lesser value in the party (party meaning 2 or more people) complimentary."],"id":"lunchbox-laboratory-2","formatted_address":"4901 Point Fosdick Drive Northwest, Gig Harbor, WA 98335, USA","lat":47.3025829,"lng":-122.5791283},"lunchbox-laboratory-2-3":{"name":"Lunchbox Laboratory","address":"989 112th Ave NE","city":"Bellevue","state":"WA","zip":"98004","telephone":"(425) 505-2676","promotions":["Receive the second adult entrée of equal or lesser value in the party (party meaning 2 or more people) complimentary."],"id":"lunchbox-laboratory-2-3","formatted_address":"989 112th Avenue Northeast, Bellevue, WA 98004, USA","lat":47.6189881,"lng":-122.191701},"marcos-restaurant-lounge":{"name":"Marcos Restaurant & Lounge","address":"Suite A","city":"Lynnwood","state":"WA","zip":"98037","telephone":"(425) 743-6627","promotions":["Receive the second adult entrée of equal or lesser value in the party (party meaning 2 or more people) complimentary."],"id":"marcos-restaurant-lounge","formatted_address":"Lynnwood, WA 98037, USA","lat":47.8307023,"lng":-122.2741948},"margaux":{"name":"Margaux","address":"401 Lenora","city":"Seattle","state":"WA","zip":"98121","telephone":"(206) 777-1990","promotions":["Receive the second adult entrée of equal or lesser value in the party (party meaning 2 or more people) complimentary.","20% off total bill when dining alone"],"id":"margaux","formatted_address":"401 Lenora Street, Seattle, WA 98121, USA","lat":47.613812,"lng":-122.340695},"marianna-ristorante":{"name":"Marianna Ristorante","address":"310 Wells Ave S","city":"Renton","state":"WA","zip":"98057","telephone":"(425) 271-7042","promotions":["Receive the second adult entrée of equal or lesser value in the party (party meaning 2 or more people) complimentary.","20% off pizza if less than 2 non-pizza entrÃ©es are ordered","18% gratuity automatically added"],"id":"marianna-ristorante","formatted_address":"310 Wells Avenue South, Renton, WA 98057, USA","lat":47.479212,"lng":-122.205317,"rating":null,"gplaces_ref":"CnRrAAAAcnMsnq2gqqN-aaNcgiiC7AaNp1qEF51mVpUHmCL8HwCXYBWn4vf3b8C8mBLKvEJh_hymQesI3VihuZz7Os9zX2MpgXd0PUNES3UifuHrjf-nFizTjQ0rg9RY4RQKSjRqOp0ikh1-D31_7kS0a7FH1hIQ-bORiWOBO0nmIZwTWoGy8hoUVtBAHo05-L80oSzcXegSDjxMg90"},"marrakesh-authentic-moroccan-cuisine":{"name":"Marrakesh Authentic Moroccan Cuisine","address":"2334 Second Ave","city":"Seattle","state":"WA","zip":"98121","telephone":"(206) 956-0500","promotions":["$10.00 off 2nd 5-course pre fixe","Max 2 cards"],"id":"marrakesh-authentic-moroccan-cuisine","formatted_address":"2334 2nd Avenue, Seattle, WA 98121, USA","lat":47.6149232,"lng":-122.3465853},"masala-of-india-cuisine":{"name":"Masala of India Cuisine","address":"507 Northgate Way","city":"Seattle","state":"WA","zip":"98125","telephone":"(206) 417-1118","promotions":["Receive the second adult entrée of equal or lesser value in the party (party meaning 2 or more people) complimentary.","2nd platter, $6 off; excludes buffet","20% off total bill when dining alone","10% savings on banquets booked","18% gratuity automatically added"],"id":"masala-of-india-cuisine","formatted_address":"507 Northeast Northgate Way, Seattle, WA 98125, USA","lat":47.708424,"lng":-122.321902,"rating":3.7,"gplaces_ref":"CoQBewAAAAzcqAz-TDg6-iAFiqlhBdGrLeHOaSvUll-tl3I-abr8eTh3FE7ei0p_G8iwji_3nV08FohRaEisK8nNw9ATIlQpZjjoSlr-EjXAyw166vaD75vCtyhzSqeSse84iUNvOtYiWykJO40fLTVBdYUASQ9heaHU9s3wK8QYZdAv5w4BEhBfFCs5YUJp38UoKTtPApyjGhRwNYg-O1K_8BOEcEX9qtD3mihmRQ"},"matador-ballard":{"name":"Matador Ballard","address":"2221 NW Market St.","city":"Seattle","state":"WA","zip":"98107","telephone":"(206) 297-2855","promotions":["Receive the second adult entrée of equal or lesser value in the party (party meaning 2 or more people) complimentary."],"id":"matador-ballard","formatted_address":"2221 Northwest Market Street, Seattle, WA 98107, USA","lat":47.668524,"lng":-122.385902,"rating":4.1,"gplaces_ref":"CpQBgQAAAN25dKlCTsLMm0Qw1M7RW7AgxVc_eZ3eywG9yg51ktxnAon8f3ExKO4Fq9bAEmSyYjXg1k8C5vSv4_Et-ISDmlqf7pq02oaow7I6k_jcVjLFvIqfoHpueM_agLDet9cVy-ASbkkP5IqhXBwmu2lPLDDaVAe_UiKgRnMM6cvU7JsyC5LmTKYmiI7YTFsyEhdBCRIQY470JJfgb1-4tkg5TDY51RoUpcA1BiY0aBijJm4OdcfWh-J4wAU"},"matador-redmond":{"name":"Matador Redmond","address":"7824 Leary Way NE","city":"Redmond","state":"WA","zip":"98052","telephone":"(425) 883-2855","promotions":["Receive the second adult entrée of equal or lesser value in the party (party meaning 2 or more people) complimentary."],"id":"matador-redmond","formatted_address":"7824 Leary Way Northeast, Redmond, WA 98052, USA","lat":47.6731849,"lng":-122.122872},"matador-tacoma":{"name":"Matador Tacoma","address":"721 Pacific Ave.","city":"Tacoma","state":"WA","zip":"98402","telephone":"(253) 627-7100","promotions":["Receive the second adult entrée of equal or lesser value in the party (party meaning 2 or more people) complimentary."],"id":"matador-tacoma","formatted_address":"721 Pacific Avenue, Tacoma, WA 98402, USA","lat":47.257314,"lng":-122.4395457},"matador-west-seattle":{"name":"Matador West Seattle","address":"4546 California Ave SW","city":"Seattle","state":"WA","zip":"98116","telephone":"(206) 932-9988","promotions":["Receive the second adult entrée of equal or lesser value in the party (party meaning 2 or more people) complimentary."],"id":"matador-west-seattle","formatted_address":"4546 California Avenue Southwest, Seattle, WA 98116, USA","lat":47.56147499999999,"lng":-122.386385},"mayan-family-mexican-restaurant":{"name":"Mayan Family Mexican Restaurant","address":"2120 Marvin Rd. NE","city":"Lacey","state":"WA","zip":"98516","telephone":"(360) 456-8222","promotions":["Receive the second adult entrée of equal or lesser value in the party (party meaning 2 or more people) complimentary."],"id":"mayan-family-mexican-restaurant","formatted_address":"2120 Marvin Road Northeast, Lacey, WA 98516, USA","lat":47.0657089,"lng":-122.7655266},"mayan-family-mexican-restaurant-2":{"name":"Mayan Family Mexican Restaurant","address":"4520 Pacific Ave. SE","city":"Lacey","state":"WA","zip":"98503","telephone":"(360) 491-8244","promotions":["Receive the second adult entrée of equal or lesser value in the party (party meaning 2 or more people) complimentary."],"id":"mayan-family-mexican-restaurant-2","formatted_address":"4520 Pacific Avenue Southeast, Lacey, WA 98503, USA","lat":47.037793,"lng":-122.824931,"rating":4.1,"gplaces_ref":"CpQBggAAALwc2e-J7F9euBUAMuHhBZbMRa8WwzTDfUvsV8PEK7MTVWEjtT7OeOGBKqhKs3dg_r142rd472WJTbp7-h_U8sKXNLb4dste05l0hEm1ndB3849XMb-rXjap-aH7pEH1EN_VY-ar3DOwAxX0cU0TFVDiTY5mRKT-4WWBFr7LOhtKNz-9DFVRbFiK4Hb8y8miSBIQbXPnPZNslx7dgle8S_jRQhoUGO8odRogEipkqffkGXJKuqgjo-w"},"mayan-family-mexican-restaurant-2-3":{"name":"Mayan Family Mexican Restaurant","address":"4820 Yelm Hwy. SE","city":"Lacey","state":"WA","zip":"98516","telephone":"(360) 456-0818","promotions":["Receive the second adult entrée of equal or lesser value in the party (party meaning 2 or more people) complimentary."],"id":"mayan-family-mexican-restaurant-2-3","formatted_address":"4820 Yelm Highway Southeast, Lacey, WA 98503, USA","lat":46.9969,"lng":-122.820098,"rating":4.1,"gplaces_ref":"CpQBggAAAPHGvvjNzIb6SRNnIOHcJqoX7geoJHE0FK2rrCtvfChdKTAdqO57n0jwy7IY7W_3mpM5kofQx1mI_kQMSOwHBF5Jnm4SNzA-RerNx9YKgopHRp_AZJYWNqa0XtjOR_081SJvoG0HYF4Ls1d0fV4_oTC0Gnmrq9Mifl5-ehS8eol5osKeOin22OS0z0zlkD02rhIQ-dcbD_7E10434MYBn2bbEhoU_IjLySWeLIDftPitmmUV8VpYUfc"},"mccarthys-bar-grille":{"name":"McCarthys Bar & Grille","address":"20610 44th Ave. W","city":"Lynnwood","state":"WA","zip":"98036","telephone":"(425) 582-4251","promotions":["Receive the second adult entrée of equal or lesser value in the party (party meaning 2 or more people) complimentary."],"id":"mccarthys-bar-grille","formatted_address":"20610 44th Avenue West, Lynnwood, WA 98036, USA","lat":47.811108,"lng":-122.293904,"rating":null,"gplaces_ref":"CoQBeQAAAOeiu9VTH8Av3P0NvtzPb7U5gSqqE_z-mrUV5yAs8-DhpeeQ31ZTKxp67SMphtd2GuBvtE9VwH0jadWWrWPYA8niFvSO6vt8yVWLXpfKjCKOB_uyWtj6XqsctJI6BD3tl9sl_JafrwgEN5FwlMop0BRjyhEq3RpBEOP0RUKyiRitEhDQHLGy1w_dwr1awoJbvVVmGhSxAoa95bwOq8pWxLEq_D3eUG04QA"},"melrose-grill":{"name":"Melrose Grill","address":"819 Houser Way S","city":"Renton","state":"WA","zip":"98057","telephone":"(425) 254-0759","promotions":["Receive the second adult entrée of equal or lesser value in the party (party meaning 2 or more people) complimentary."],"id":"melrose-grill","formatted_address":"819 Houser Way South, Renton, WA 98057, USA","lat":47.478871,"lng":-122.205663,"rating":4.3,"gplaces_ref":"CnRwAAAA06lkEb6iDymtj07ZGk7CMDnp3rhq0mWSaFW5kD1a2sfCCFyeLo0obNNN6VKI_2_D2yyrgGjdsK9BaXtS1hJqk8IaN1IjTBJoVGkYHxvTg13KeNSJY-0VMonspvD3Y8wsObwpd_0uL0ebR-OyrvlpGRIQJGkdOnxFPzR8P8V3uMm7LxoU5ynEYErKzMLjZSPy_IwGf0JEGFE"},"mick-kellys-irish-pub":{"name":"Mick Kellys Irish Pub","address":"2019 W Meeker St.","city":"Kent","state":"WA","zip":"98031","telephone":"(253) 856-6425","promotions":["Receive the second adult entrée of equal or lesser value in the party (party meaning 2 or more people) complimentary.","20% off pizza if less than 2 non-pizza entrÃ©es are ordered","10% savings on banquets booked"],"id":"mick-kellys-irish-pub","formatted_address":"2019 West Meeker Street, Kent, WA 98032, USA","lat":47.380789,"lng":-122.262714,"rating":null,"gplaces_ref":"CoQBeAAAAINZVPNDAvonNB0mpXTQyrXXb8CjTUeJ18tlN7FPBvgfKgh8OFlHoOx7Ngd7UtvV_Hv_oDhnEQSq-UogsfjE2lRzEQjdPXEngf5aaOZjcx-VX0DmRXBo9dGPLRys5j23oQ4uHO9AaV0kIkRDG2LTjbk9WYnWz_IgqVUOEYyovgZVEhBNZSQNZoFAQPJ7erA5xJk4GhQj6c6b4d02QnkKsxoPpFp21MPaeQ"},"mick-kellys-irish-pub-2":{"name":"Mick Kellys Irish Pub","address":"435 SW 152nd St.","city":"Burien","state":"WA","zip":"98166","telephone":"(206) 246-2473","promotions":["Receive the second adult entrée of equal or lesser value in the party (party meaning 2 or more people) complimentary.","10% savings on banquets booked","18% gratuity automatically added"],"id":"mick-kellys-irish-pub-2","formatted_address":"435 Southwest 152nd Street, Burien, WA 98166, USA","lat":47.466703,"lng":-122.340771,"rating":3.8,"gplaces_ref":"CoQBeAAAAJ-lIcEwN8tvjEhUSXuXWP8xDtwUcMr6r62TsErtPO8TU6q6D8zMh8sqEvV0I6WNA1NomJov15mYK0rf5aY_35PaQv8d71ANZZNBZXVsq-qwfCaOko2tOvHcgO41qzPG1bCn3lqFpfgsMxg1-f4Z5-y8U6Wekt_Ii4YYdDVN8b6pEhBvwx_Wp0LpxLTV8_4x0uoBGhSSbvyPCiYKppjaSpqCZU7ycNlWYA"},"mondello":{"name":"Mondello","address":"2425 33rd Ave. W","city":"Seattle","state":"WA","zip":"98199","telephone":"(206) 352-8700","promotions":["Receive the second adult entrée of equal or lesser value in the party (party meaning 2 or more people) complimentary.","18% gratuity automatically added","Not valid on daily specials"],"id":"mondello","formatted_address":"2425 33rd Avenue West, Seattle, WA 98199, USA","lat":47.64016,"lng":-122.399784,"rating":4.3,"gplaces_ref":"CoQBfAAAAF8VWCSuEvJmU9v1lspYEgBasP_YRanSQ2v4ykMVi6LPq90dhoApsozhZy_hAcCjWuVZBPrjUJCeNdngb4TAMCglxud9bswwq0eH-2NinGki5BJbBl_GjKiMAiMHy-4zxKZL2R3MjGrfGVFM5a1c1bcfWZs7NxL00IDrgUCMABuWEhBChTzhlmSlzQycZr0x5jaAGhT7ZnG5j5dEUDUAjIykKRGew5qvgA"},"new-york-pizza-bar":{"name":"New York Pizza & Bar","address":"500 Mercer St","city":"Seattle","state":"WA","zip":"98109","telephone":"(206) 913-2565","promotions":["Receive the second adult entrée of equal or lesser value in the party (party meaning 2 or more people) complimentary.","20% off pizza if less than 2 non-pizza entrÃ©es are ordered","20% off total bill when dining alone"],"id":"new-york-pizza-bar","formatted_address":"500 Mercer Street, Seattle, WA 98109, USA","lat":47.625324,"lng":-122.347133,"rating":4,"gplaces_ref":"CoQBdgAAAHYVBSzcHmw6mB0ppXmrkib3zAXNhlJgLSRiMFKk_3J-Ls9v7g1U-ZZ02umCpIW430ZMQ-_hFY4FPS4oGLO4KRf80QupXXg-4W96qhHUoy6iqK3H0T7Ia6Q4I1sDmMHlNLSLzpYKt2SWomnMsQTi_4f24cV8eojFz2Mm2ves4dESEhAWfWgOix1sZDeN1iGtkvjoGhTorLTOnQhloIprpRPNy_Ykcww1mg"},"new-york-pizza-bar-2":{"name":"New York Pizza & Bar","address":"8874 Bender Rd","city":"Lynden","state":"WA","zip":"98264","telephone":"(360) 318-0580","promotions":["Receive the second adult entrée of equal or lesser value in the party (party meaning 2 or more people) complimentary.","20% off pizza if less than 2 non-pizza entrÃ©es are ordered","20% off total bill when dining alone"],"id":"new-york-pizza-bar-2","formatted_address":"8874 Bender Road, Lynden, WA 98264, USA","lat":48.963369,"lng":-122.440234},"new-york-pizza-bar-2-3":{"name":"New York Pizza & Bar","address":"902 N State St","city":"Bellingham","state":"WA","zip":"98225","telephone":"(360) 733-3171","promotions":["Receive the second adult entrée of equal or lesser value in the party (party meaning 2 or more people) complimentary.","20% off pizza if less than 2 non-pizza entrÃ©es are ordered","20% off total bill when dining alone"],"id":"new-york-pizza-bar-2-3","formatted_address":"902 North State Street, Bellingham, WA 98225, USA","lat":48.744105,"lng":-122.483082,"rating":3.4,"gplaces_ref":"CoQBeAAAAFOaEOwRGoUkuI8_usg3YLmdeblPnCcQtOJjN3b5qt-rPHCed2qwnm-msYLj9ANsWxkg8Ab5HlvheJgbtsqbj8Je44tcjYuK6JdbuLXXBeDaxUS2M9DfJt5qfsOeQWFOFkn-IWVJUBi_sRT619UfVP3kSIAqzjaZuR-9qRilsOFLEhD77o2mMNsoFAiLw2qvFuJBGhR6b74u7X5HyYydq4qy0vfsJYF-sA"},"nine-o-bar-grill":{"name":"Nine O Bar & Grill","address":"14632 SE Eastgate Way","city":"Bellevue","state":"WA","zip":"98007","telephone":"(425) 214-9000","promotions":["Receive the second adult entrée of equal or lesser value in the party (party meaning 2 or more people) complimentary."],"id":"nine-o-bar-grill","formatted_address":"14632 Southeast Eastgate Way, Bellevue, WA 98007, USA","lat":47.5799,"lng":-122.144039,"rating":3.8,"gplaces_ref":"CoQBdQAAANhXdlubsiYP99cECyQyoWU7b1vXF53d67sqQCpSBmfHScteeVjRX0MpcicsMFZsLVihJuLYIbdiNW5Lie10B9KbZdQPFDoq-5VFBrUBiyZ8AYHpBKj8GRMBBzGA-CabUAKv5LNpYrRgwZcgWBeVPJcYDB3KO8tQNnulufP1FzVAEhDhA2ZA67BSifWWHk57T0jNGhRrfjRYvilMFR8SBfclZe1M8m2Rng"},"north-city-bistro-wine-shop":{"name":"North City Bistro & Wine Shop","address":"1520 NE 177th St.","city":"Shoreline","state":"WA","zip":"98155","telephone":"(206) 365-4447","promotions":["Receive the second adult entrée of equal or lesser value in the party (party meaning 2 or more people) complimentary.","10% savings on banquets booked"],"id":"north-city-bistro-wine-shop","formatted_address":"1520 Northeast 177th Street, Shoreline, WA 98155, USA","lat":47.757711,"lng":-122.312631,"rating":null,"gplaces_ref":"CoQBfwAAAAbuD3Vfrv6AjyFkU5QpHx-JAoDGxsbJqyd6KbxhkNm2qfTOS5kdR0Umo0bpDRBDp-8scbKb13vakaGCSe_yw-ATkRcJ4I4vB_f-pJbJkoymHDr9NIo7lySdkcxBIX9i5hRdQEpBW5xREQC_8e45VU1nLU2ljNRag3Dd9K3Fm2KcEhBIdFnTPlf28_9GGej-uV6XGhRFRROySkWF0MaHY62wn3EDwXFSCg"},"oasian-kitchen":{"name":"OAsian Kitchen","address":"800 5th Ave.","city":"Seattle","state":"WA","zip":"98104","telephone":"(206) 264-1789","promotions":["Receive the second adult entrée of equal or lesser value in the party (party meaning 2 or more people) complimentary."],"id":"oasian-kitchen","formatted_address":"800 5th Avenue, Seattle, WA 98104, USA","lat":47.605464,"lng":-122.330186,"rating":3.8,"gplaces_ref":"CoQBegAAAHA9e4kiTtW-tWJVtQpyJv1YcCQjvLIJkpbAfHCLcDO-opfmc1iv8YLFfnUzoQ2w4W0hxGQiT24XPzQ6V_bDCJ1h9iIwTUOU4wSitwg1JRaS2zRLjTpM6LtmQiizhmwSi-H1Zj8pp0a2g4RMDnf_S-e-6p7QNGc_YKuCub6R8ySXEhDmiYzfKCIO_VckesBSRDbuGhT6RlfqlBTOVWtO8ayhPKZyfDEUfA"},"paddy-coynes-irish-pub":{"name":"Paddy Coynes Irish Pub","address":"1190 Thomas St.","city":"Seattle","state":"WA","zip":"98109","telephone":"(206) 405-1548","promotions":["Receive the second adult entrée of equal or lesser value in the party (party meaning 2 or more people) complimentary.","10% savings on banquets booked","Breakfast served Sat/Sun"],"id":"paddy-coynes-irish-pub","formatted_address":"1190 Thomas Street, Seattle, WA 98109, USA","lat":47.620894,"lng":-122.33323,"rating":3.9,"gplaces_ref":"CoQBeQAAAKIHgiJcHx5e1J1HslPpmM2nJDKxl4Gr6uRNdExtVySVnmOYOfcKkCmxPFcQ0m_g0gnbRpDNCwSPozZqvyiIQs8GRBdwAqSiwJ7wh-tCwbXevTb0RifP1-yG2fQQISKN_bQ7pyZmw1Z2R9TOvUhfv9TFjewyJl6GINZyCp4Pob7UEhAusPWDlg2iHCptv6-NkGyxGhQy8Y_4IqUezaVEDH2LcngQXgsqSw"},"paddy-coynes-irish-pub-2":{"name":"Paddy Coynes Irish Pub","address":"2801 Alaskan Way","city":"Seattle","state":"WA","zip":"98121","telephone":"(206) 737-8890","promotions":["Receive the second adult entrée of equal or lesser value in the party (party meaning 2 or more people) complimentary.","Breakfast weekends only"],"id":"paddy-coynes-irish-pub-2","formatted_address":"2801 Alaskan Way, Seattle, WA 98121, USA","lat":47.61471,"lng":-122.354787,"rating":null,"gplaces_ref":"CoQBdwAAADe5OHz_-swzP5A5pkSSabpgnn6MYLHgndXTIc6nJS8JScNPOSq6rANS352tJoRdcDRNmZg8SvKeld7RMcNNHjjuTNbf852RvN8qsNgIu3MRN7hbgmZXHD0GnGptFBQJIJbvmRfbFkB4ngJEVU3Nnj_Kxaopycp3FAOsYEq74KqUEhCPYhqNrgwgOPQ2s3vsrUzLGhTL4md2eci5eu7voAs64wlEfoxTjA"},"paddy-coynes-irish-pub-2-3":{"name":"Paddy Coynes Irish Pub","address":"Suite 100","city":"Bellevue","state":"WA","zip":"98004","telephone":"(425) 453-8080","promotions":["Receive the second adult entrée of equal or lesser value in the party (party meaning 2 or more people) complimentary.","Breakfast served Sat/Sun"],"id":"paddy-coynes-irish-pub-2-3","formatted_address":"Bellevue Square, Bellevue, WA 98004, USA","lat":47.6170372,"lng":-122.2041543},"pasta-freska-ristorante":{"name":"Pasta Freska Ristorante","address":"1515 Westlake Ave","city":"Seattle","state":"WA","zip":"98109","telephone":"(206) 283-1515","promotions":["$16 off 2nd Pre-Fixe item","10% savings on banquets booked","(no second entrÃ©e)"],"id":"pasta-freska-ristorante","formatted_address":"1515 Westlake Avenue North, Seattle, WA 98109, USA","lat":47.632812,"lng":-122.34091,"rating":4,"gplaces_ref":"CpQBggAAADN2uGxQ4D3-YatIia0RHOMmlpQmaN7k7CZtBmeEmT3f-h_uBf8yM1E_HSMrwdHmCNHB7j00orI5fr5LwyoHW17ig64wcrK0MKiO9u0To3hJIeoagsduh3vdufIxbdNj2iUHHCJc_1YOIEPjLnYFi9q2CNADAv6qwBm0-OS4V9pYz64ZMOYpxGfewKxYAtEeoxIQo04WBRBN5HPqUrC4HKlfYhoUqhHozN0x-9i0bWi8ePbJ_hggk14"},"pegasus-pizza":{"name":"Pegasus Pizza","address":"2770 Alki Ave. SW","city":"Seattle","state":"WA","zip":"98116","telephone":"(206) 932-4849","promotions":["Receive the second adult entrée of equal or lesser value in the party (party meaning 2 or more people) complimentary.","20% off pizza when 2 entrees not ordered","Not valid on lunch specials menu"],"id":"pegasus-pizza","formatted_address":"2770 Alki Avenue Southwest, Seattle, WA 98116, USA","lat":47.578679,"lng":-122.411832,"rating":3.9,"gplaces_ref":"CoQBdwAAAITcWXA0KHX0IxLrUB_ysT0Uw6XevF5Uywmrv-P9HsneofMtqP6G0rDQSbQgcIglda52k4-dM7Qbk9SUsXI1fGcmuVgkO1gJu5b_wDlpmszH470SIeOsFlpUJMQ21H3Ji9kqn-pdImDJpLxBVK6K1uynlOjfMs4siaaK-bHuPaNZEhCXMdsMdcwmmx6mSLF4Mi9eGhQSVZE4fz6vVDnlOmFIF1CHYik1bQ"},"pegasus-vietnamese-restaurant":{"name":"Pegasus Vietnamese Restaurant","address":"16552 NE 74th St","city":"Redmond","state":"WA","zip":"98052","telephone":"(425) 558-3999","promotions":["20% off total guest check(2 - 6 adults)","20% off total bill when dining alone"],"id":"pegasus-vietnamese-restaurant","formatted_address":"16552 Northeast 74th Street, Redmond, WA 98052, USA","lat":47.6703419,"lng":-122.1200272},"peppers-mexican-restaurant":{"name":"Peppers Mexican Restaurant","address":"114 Cherry St. NE","city":"Olympia","state":"WA","zip":"98501","telephone":"(360) 943-1111","promotions":["Receive the second adult entrée of equal or lesser value in the party (party meaning 2 or more people) complimentary.","10% savings on banquets booked"],"id":"peppers-mexican-restaurant","formatted_address":"114 Cherry Street Northeast, Olympia, WA 98501, USA","lat":47.045871,"lng":-122.895437,"rating":4,"gplaces_ref":"CoQBfAAAANhU9eGS7QBvKGdsPthIJZ48-hOWB261J09uPtknoWaUfeCIrFFbUBMRKammcfnMZFamMPO-eVY9d26v8324IRcj89jg84MXl3ZYoLhRKbY3zHp7mc6FBB3KJ32uFljchhgZ6FzAkZ9vP3l8GlGzkI8iplypxVLCWN7K8ls0jjAVEhB9wHt_cpXDPId4XHdMq7RKGhTxjj431b6C-n9T7eJvDLcQoVOz0g"},"pizzeria-guido":{"name":"Pizzeria Guido","address":"15600 NE 8th St","city":"Bellevue","state":"WA","zip":"98008","telephone":"(425) 614-0007","promotions":["20% off total guest check(2 - 6 adults)","18% gratuity automatically added"],"id":"pizzeria-guido","formatted_address":"15600 Northeast 8th Street, Crossroads Bellevue, Bellevue, WA 98008, USA","lat":47.6173462,"lng":-122.1314793},"pogacha":{"name":"Pogacha","address":"120 NW Gilman","city":"Issaquah","state":"WA","zip":"98027","telephone":"(425) 392-5550","promotions":["Receive the second adult entrée of equal or lesser value in the party (party meaning 2 or more people) complimentary.","Excludes family style entrÃ©es."],"id":"pogacha","formatted_address":"120 Northwest Gilman Boulevard, Issaquah, WA 98027, USA","lat":47.539745,"lng":-122.038225,"rating":3.4,"gplaces_ref":"CnRoAAAAbdcLGwntxpb24yrJ2WFVoTJw-62392oOV3HXXdyEpnXCudzuUjjPE3txULXe1R3rrwMviIPCQGHVujGQs7w4WPpRJYwp00nUCxgb0LPoh27c3DlGFw82THb5AjTPijPXk6KCWruq5K6oQ44MK0n6vxIQ1s1svnH-oYy0u_TPD0zjehoU26vlAd0dvSwblLoG5wvSbr7MHZo"},"ponti-seafood-grill":{"name":"Ponti Seafood Grill","address":"3014 3rd Ave. N","city":"Seattle","state":"WA","zip":"98109","telephone":"(206) 284-3000","promotions":["Receive the second adult entrée of equal or lesser value in the party (party meaning 2 or more people) complimentary."],"id":"ponti-seafood-grill","formatted_address":"3014 3rd Avenue North, Seattle, WA 98109, USA","lat":47.647386,"lng":-122.351132,"rating":4.2,"gplaces_ref":"CoQBdAAAAPA7jF3H9lbRw_-iqeIzGeHwSzkmyhFrLD7YwKXmhzzEnHUfdM6M-mj0aq4NhMEJpqAMEROGS0oNGKvR7vu4r0dP4WIjvrXObHPOR1t0c7LJxQDI2U47w1JDPqEIE3a0x6x6HwE0hwxn9tDtynjwzOcfswK_4w-nNLF1B-RBZF-cEhDJZPts7ILa5-xKPFWP8M0qGhQDYOcVeAYVm1GqmpZiZFBrPhsQMw"},"poppy":{"name":"Poppy","address":"622 Broadway E","city":"Seattle","state":"WA","zip":"98102","telephone":"(206) 324-1108","promotions":["$12 off 2nd Thali"],"id":"poppy","formatted_address":"622 Broadway East, Seattle, WA 98102, USA","lat":47.624955,"lng":-122.320637,"rating":4.2,"gplaces_ref":"CnRnAAAAHtpPmMRam2O3FL_D61FV6r1w6J7bmYxtdu7dLy5mY9wbvXNWFKDdDILzhcGYgvqpFCJ1cwBF11obwTiPfOi61xE2KFuqaCYYEn9usHeoblecbBJEpnhDGhKr2KV8ErKtwHkeeBK4u6q6BTd7k7XnZBIQKZjBaiUA7uU3a1UKpVGOYRoUFS8SLlgpWyfqk2_DnihsA27b1io"},"ports-of-call-at-la-quinta":{"name":"Ports of Call at La Quinta","address":"1425 E 27th St.","city":"Tacoma","state":"WA","zip":"98421","telephone":"(253) 272-6731","promotions":["Receive the second adult entrée of equal or lesser value in the party (party meaning 2 or more people) complimentary.","20% off total bill when dining alone"],"id":"ports-of-call-at-la-quinta","formatted_address":"1425 East 27th Street, Tacoma, WA 98421, USA","lat":47.2400139,"lng":-122.411922},"primo-grill":{"name":"Primo Grill","address":"Suite 102","city":"Tacoma","state":"WA","zip":"98405","telephone":"(253) 383-7000","promotions":["Receive the second adult entrée of equal or lesser value in the party (party meaning 2 or more people) complimentary."],"id":"primo-grill","formatted_address":"Tacoma, 1516 Pacific Avenue, Tacoma, WA 98402, USA","lat":47.2523771,"lng":-122.4445267},"queen-margherita":{"name":"Queen Margherita","address":"3111 W McGraw St.","city":"Seattle","state":"WA","zip":"98199","telephone":"(206) 548-4908","promotions":["20% off total guest check(2 - 6 adults)","10% savings on banquets booked"],"id":"queen-margherita","formatted_address":"3111 West McGraw Street, Seattle, WA 98199, USA","lat":47.639227,"lng":-122.397621,"rating":4.1,"gplaces_ref":"CoQBcQAAANtxcOoCu3BFqLsJ-XnViK_BeLzcsOsq4I7LMMgVvCmp14BevLdnOIDnuqmU3ShIClLgUVo1HyPyboU7TlxUpbZILo2yW79hz1qiX4qIOD0gpE9M4q28GmxVVYkA95e_K4ttrO8Y_XuMU-Gluirxbs0cuUdg6Tk-8wbFG8A-YZK5EhCykFSG-e9jd7dP1WNIDxmDGhT46kzYZa9dA0Fn7g32LA_6EyYPIA"},"racha-noodle-thai":{"name":"Racha Noodle & Thai","address":"23 Mercer St.","city":"Seattle","state":"WA","zip":"98109","telephone":"(206) 281-8883","promotions":["Receive the second adult entrée of equal or lesser value in the party (party meaning 2 or more people) complimentary."],"id":"racha-noodle-thai","formatted_address":"23 Mercer Street, Seattle, WA 98109, USA","lat":47.6243027,"lng":-122.35565},"racha-thai-asian-kitchen":{"name":"Racha Thai & Asian Kitchen","address":"1150 Southcenter Pkwy.","city":"Tukwila","state":"WA","zip":"98188","telephone":"(206) 768-8883","promotions":["Receive the second adult entrée of equal or lesser value in the party (party meaning 2 or more people) complimentary.","18% gratuity automatically added"],"id":"racha-thai-asian-kitchen","formatted_address":"Southcenter Parkway, Tukwila, WA 98188, USA","lat":47.44283859999999,"lng":-122.2608368},"racha-thai-cuisine":{"name":"Racha Thai Cuisine","address":"13317 NE 175th St.","city":"Woodinville","state":"WA","zip":"98072","telephone":"(425) 481-8833","promotions":["Receive the second adult entrée of equal or lesser value in the party (party meaning 2 or more people) complimentary.","18% gratuity automatically added"],"id":"racha-thai-cuisine","formatted_address":"13317 Northeast 175th Street, Woodinville, WA 98072, USA","lat":47.753781,"lng":-122.160692,"rating":3.9,"gplaces_ref":"CoQBcwAAALKc4L2BeHLh-60lcredknQxDQzEnVJzZfcb1cGBvjAmErquBhlgHBvqUN5Dx3rpu0NvBKheWk43zStxGonpe-CtnxTaT-oCTk3Ktpo8rVGu6zdBkCxH2CzKEc1zbFT8nzuYDf56w4OIeDXAiWQofg8XAoG0baMuNEVbXZ4vATbOEhDfZHpJHNs1IUG8o-Xzxt1MGhRLiHUnsoX-2pXyyW5It5gyOFMpIg"},"rays-boathouse":{"name":"Rays Boathouse","address":"6049 Seaview Ave. NW","city":"Seattle","state":"WA","zip":"98107","telephone":"(206) 789-3770","promotions":["Receive the second adult entrée of equal or lesser value in the party (party meaning 2 or more people) complimentary.","$30 savings on 5-course Tasting Menu","18% gratuity automatically added"],"id":"rays-boathouse","formatted_address":"6049 Seaview Avenue Northwest, Seattle, WA 98107, USA","lat":47.673476,"lng":-122.407493,"rating":4.3,"gplaces_ref":"CoQBcQAAAOlB2lP8PDcv_hzpo1qN6syWgp6-4jvFaD8hYZ-5wVZ18hetaNH7_TvmHn-822tIN6_aZ6trXuHMDPW7l0w8sPmkUypSpkav41EF0Eywafw52Lq5SI6dHxPJwkcNBp36OD-Dc12wx8ZE4669zNp0lPTqOwPQ3N8Lw-4BgAHYxG4bEhADTxVYKr9f212UchYGDRuKGhT_OLOOK1beGl2qzHONJ1phhPPMHg"},"rays-cafe":{"name":"Rays Cafe","address":"6049 Seaview Ave. NW","city":"Seattle","state":"WA","zip":"98107","telephone":"(206) 789-3770","promotions":["Receive the second adult entrée of equal or lesser value in the party (party meaning 2 or more people) complimentary.","18% gratuity automatically added"],"id":"rays-cafe","formatted_address":"6049 Seaview Avenue Northwest, Seattle, WA 98107, USA","lat":47.6734435,"lng":-122.4074595},"rays-caf":{"name":"Rays Caf","address":"6049 Seaview Ave. NW","city":"Seattle","state":"WA","zip":"98107","telephone":"(206) 789-3770","promotions":["Receive the second adult entree of equal or lesser value in the party (party meaning 2 or more people) complimentary.  "],"id":"rays-caf","formatted_address":"6049 Seaview Avenue Northwest, Seattle, WA 98107, USA","lat":47.6734435,"lng":-122.4074595},"redmonds-bar-grill":{"name":"Redmonds Bar & Grill","address":"7979 Leary Way NE","city":"Redmond","state":"WA","zip":"98052","telephone":"(425) 558-9800","promotions":["Receive the second adult entrée of equal or lesser value in the party (party meaning 2 or more people) complimentary.","18% gratuity automatically added"],"id":"redmonds-bar-grill","formatted_address":"7979 Leary Way Northeast, Redmond, WA 98052, USA","lat":47.674416,"lng":-122.122706,"rating":4.1,"gplaces_ref":"CoQBeQAAAFMYOTKu3hddD7Cco-PDQkIY_VmUPfiahqDRdT1qmkLV7_zkYqkYgjb1B2tnJ-8m3Vb0dO1cGauDWXvJtDTu3fItF2rfajZev_9e_cs2yRHrCvsAmveByhajzTlf7Wft5vL8X-Bk1zGVJ3WZ3polQKZkHkLt6l4dZZjHlxvDLY2cEhCRmsoxrdsoYZ8M34RcO9RRGhSP522GusIg0iguTIk-R_Ke47SYeg"},"rikki-rikki":{"name":"Rikki Rikki","address":"442 Parkplace Ctr.","city":"Kirkland","state":"WA","zip":"98033","telephone":"(425) 828-0707","promotions":["20% off total guest check(2 - 6 adults)"],"id":"rikki-rikki","formatted_address":"442 Parkplace Center, Kirkland Parkplace, Kirkland, WA 98033, USA","lat":47.678169,"lng":-122.198701,"rating":3.9,"gplaces_ref":"CpQBgQAAAJQ0O454OSkv24du3hzWK-IlYO1bW8hsWeCobQ5GiwtkQsXSsgGdV3CvQKDykGp_LkxJOhb3SllBceaEf3Q1wPlVHVf1pzWAA9h2llzuGhSvn1r28Dz2mSbW8yRmLTOQBT8Uop3WTm7gx2sXd7_MPR_TDfT69WKaAGnOEVTHZXe2TJDBxzNuQ8yxrYltnCpIfBIQQBfnEX1yx8uH0PO2yUF1cRoUE_GQtXZTPauWPZqo722UEBKkfqg"},"royal-argosy-dining-cruises":{"name":"Royal Argosy Dining Cruises","address":"Pier 56","city":"Seattle","state":"WA","zip":"98101","telephone":"(206) 623-1445","promotions":["20% off Dining Cruise Experience","Themed Events Excluded"],"id":"royal-argosy-dining-cruises","formatted_address":"Pier 56, Seattle, WA 98101, USA","lat":47.6053309,"lng":-122.3403285},"russells":{"name":"Russells","address":"3305 Monte Villa Pkwy.","city":"Bothell","state":"WA","zip":"98021","telephone":"(425) 486-4072","promotions":["Receive the second adult entrée of equal or lesser value in the party (party meaning 2 or more people) complimentary.","10% off in-home catering","Dine-in only"],"id":"russells","formatted_address":"3305 Monte Villa Parkway, Bothell, WA 98021, USA","lat":47.778911,"lng":-122.188748,"rating":4,"gplaces_ref":"CnRsAAAAi3eE_-KcEdrD5XWI7T4-N8VXJ-MUjQ_KEptM3K1uWMz6DatFzlfU2hssWvv3M-eOEfnh6XeB4hyB3afinS7VqJ_8IwfXc2Z_hB5nOXEbBvGx9CzA_F8s9WLcTTPaKXpeIX0PdrtPfeRB0RZ1hq3KIBIQ_Vv_-11MpeUiQ12_08SMchoUF9AfsUT4xDqu8i-xaiZrXsJFLCk"},"saffron-grill":{"name":"Saffron Grill","address":"2132 N Northgate Way","city":"Seattle","state":"WA","zip":"98133","telephone":"(206) 417-0707","promotions":["Receive the second adult entrée of equal or lesser value in the party (party meaning 2 or more people) complimentary.","20% off on all 'To Go' orders","10% savings on banquets booked"],"id":"saffron-grill","formatted_address":"2132 North Northgate Way, Seattle, WA 98133, USA","lat":47.708772,"lng":-122.332668,"rating":4.2,"gplaces_ref":"CnRuAAAAT-1vAPeaDkOP9DmhtIGSOQz0IcYGj_6VAf2y8b8RmbF5IplSyw358nNuOJe1cNnCpbjMP5GRD6R_BOGrLUSkcsjHdDI7T5a7Y09oPF5DCn-DXuf7-uAIrOraL6x3rk6bdEFUEK_Gy2HYTL1VemDIehIQC-fcn1Rrd5kbdnV4lx2bUBoUuqrfgmcWczI0BpWLzFERmkPBSRg"},"sear":{"name":"SEAR","address":"7401 164th Ave. NE","city":"Redmond","state":"WA","zip":"98052","telephone":"(425) 864-1459","promotions":["Receive the second adult entrée of equal or lesser value in the party (party meaning 2 or more people) complimentary.","20% off total bill when dining alone"],"id":"sear","formatted_address":"7401 164th Avenue Northeast, Redmond, WA 98052, USA","lat":47.671225,"lng":-122.122192},"shawn-odonnells-american-grill-irish-pub":{"name":"Shawn ODonnells American Grill & Irish Pub","address":"122 128th St. SE","city":"Everett","state":"WA","zip":"98208","telephone":"(425) 338-5700","promotions":["Receive the second adult entrée of equal or lesser value in the party (party meaning 2 or more people) complimentary.","20% off total bill when dining alone","10% savings on banquets booked"],"id":"shawn-odonnells-american-grill-irish-pub","formatted_address":"122 128th Street Southeast, Everett, WA 98208, USA","lat":47.881476,"lng":-122.230128,"rating":4.1,"gplaces_ref":"CoQBcwAAAIyMJqjBS3qdWIb_mbb9FDrpMCzcOIvR86qdzcFkudUf9k-gxIrmCNeY6DeGsFji8VOXixP7RqKW1UAcHlR_ZNR8vNC5w1rY7R8kwPleD5IBAoo2R7aN3QdW6JjOfhQaG98pGK8D6p38gnyCtbDNsA_wz2GrXw_EvpoY6Odgype-EhDP7RKa0PYYBFixDAUrWrcMGhT-IU1tBURVNaA8Jb30kOEtxRRivw"},"ship-canal-grill":{"name":"Ship Canal Grill","address":"3218 Eastlake Ave E","city":"Seattle","state":"WA","zip":"98102","telephone":"(206) 588-8885","promotions":["Receive the second adult entrée of equal or lesser value in the party (party meaning 2 or more people) complimentary.","20% off total bill when dining alone","10% savings on banquets booked"],"id":"ship-canal-grill","formatted_address":"3218 Eastlake Avenue East, Seattle, WA 98102, USA","lat":47.650641,"lng":-122.321809,"rating":4,"gplaces_ref":"CoQBcQAAAP06xvoPE1kPqf0xYuz8Hgrrmsb98uwilOc0sONykROIyOtfUJ-_5FHlrcqiMrPzyN3O3wTy1LQnrNrgGasHLBSMoypNQSI-zq7lFOBoFNimG8KEbrYQkWLetixCKbYGFR5kHXYpAPMNSgkZuyRywMI1fHeDEkbsC7Jr8h-5lqpjEhB-mpqCTifPWr8llxWjnfF5GhTSoaDJVTZfMB6lKuaB0AwEDLTL8A"},"silver-city-brewery":{"name":"Silver City Brewery","address":"2799 Myhre Rd","city":"Silverdale","state":"WA","zip":"98393","telephone":"(360) 698-5879","promotions":["Receive the second adult entrée of equal or lesser value in the party (party meaning 2 or more people) complimentary.","Not valid with Silver City Special Clubs"],"id":"silver-city-brewery","formatted_address":"2799 Northwest Myhre Road, Silverdale, WA 98383, USA","lat":47.659491,"lng":-122.687293,"rating":4.4,"gplaces_ref":"CpQBgwAAANh4psc7q4MmU-DE7A4MEsZ3mi8y4q8kTclifYzgsyNUGcdtZuBU84BVw4d_SJdEz7qRzOeMK9BTzXy4n8fHjZNP3ep--gjVu-oADRmf6XasGbWL_5aov615kZ4asuGspOQqUU1VqSuZhW-wUnSNzgrSvR6R2ketqIzsmQ_llJO2sbB6qnOg1q771vSczwNLRBIQnRfZU2XLxunkbk5zPULa6hoUfkSzhnQ2_Ju28EtXxwvyTcDKdY0"},"sip-at-the-wine-bar-restaurant":{"name":"Sip at the Wine Bar & Restaurant","address":"1084 NE Park Dr.","city":"Issaquah","state":"WA","zip":"98029","telephone":"(425) 369-1181","promotions":["Receive the second adult entrée of equal or lesser value in the party (party meaning 2 or more people) complimentary.","20% off total bill when dining alone"],"id":"sip-at-the-wine-bar-restaurant","formatted_address":"1084 Northeast Park Drive, Issaquah, WA 98029, USA","lat":47.5442097,"lng":-122.0142145},"skycity-restaurant-at-the-needle":{"name":"SkyCity Restaurant at The Needle","address":"400 Broad St.","city":"Seattle","state":"WA","zip":"98109","telephone":"(800) 937-9582","promotions":["Receive the second adult entrée of equal or lesser value in the party (party meaning 2 or more people) complimentary.","$25 off 2nd Brunch"],"id":"skycity-restaurant-at-the-needle","formatted_address":"400 Broad Street, Seattle, WA 98109, USA","lat":47.620496,"lng":-122.349737,"rating":4.2,"gplaces_ref":"CoQBdAAAAFUN-DwSMZqioroN4uU8HJBAdFsSbcLOtLGIB2CKMLSS9GKeZa3-y2QzKqWgs0iYJRYzwXp-zuaX-JUOzqkQb-t6K3-AkInLilvx5b3pbyAZqibXxo34pmVpK1EGcdu0AH5KnmBpktkTSc00VVlmp84pQvZB9HJc6xPjMi6PStzNEhCU4K3SqumbJzgtKaXtfppPGhQrXJREQm3OmLhchMtssbDuF16hkA"},"smash-wine-bar-bistro":{"name":"Smash Wine Bar & Bistro","address":"1401 N 45th St","city":"Seattle","state":"WA","zip":"98103","telephone":"(206) 547-3232","promotions":["Receive the second adult entrée of equal or lesser value in the party (party meaning 2 or more people) complimentary."],"id":"smash-wine-bar-bistro","formatted_address":"1401 North 45th Street, Seattle, WA 98103, USA","lat":47.661294,"lng":-122.340381,"rating":4.2,"gplaces_ref":"CoQBeAAAAO4ELlCA2N1c9izpLS94AO0MHODD9yjWbfnXIF1y_lkOGlxJhmBgiDO20jrZr1vqYSV_83RxfiFPuTnkqjkMToC8gYsBd-YeUDfHjSxdxZvwh75aB29W26facWUsDZD5g0Jh6tUlWNt5jwh3xeK6lcuwSC63jIP39RWdZEx33g5JEhC0g-w6QGwx19Jm743GIqvyGhTQViyKAOhQgeIabFntr059aqM9fg"},"snoqualmie-brewery-and-taproom":{"name":"Snoqualmie Brewery and Taproom","address":"8032 Falls Ave.","city":"Snoqualmie","state":"WA","zip":"98065","telephone":"(425) 831-2357","promotions":["Receive the second adult entrée of equal or lesser value in the party (party meaning 2 or more people) complimentary.","20% off total bill when dining alone","20% off on all 'To Go' orders"],"id":"snoqualmie-brewery-and-taproom","formatted_address":"8032 Falls Avenue Southeast, Snoqualmie, WA 98065, USA","lat":47.528637,"lng":-121.824269,"rating":4,"gplaces_ref":"CoQBfwAAAClT5XvqmtiIjId3-tFrFbPVoKbHUj-TLn6n3cn4lkYGcdIAHNTyqxqBpY2BNaEGWTzOEIIGOJHTHz2fMVo_rXbiph-9glwUgI0t6gwBf4BXWtStS4F0BqjckfkGEgwVdGmQvkp2W-kSWZwhb2gtgHoH4s9ORTZvkvNDRVnOtTjLEhAnPWXIx0GKp_4of2ABPawvGhT3zA-eHruTL_7ZWKkwF_QjsROeQQ"},"sorcis-italian-eatery":{"name":"Sorcis Italian Eatery","address":"1012 Ryan Ave","city":"Sumner","state":"WA","zip":"98498","telephone":"(253) 891-8400","promotions":["Receive the second adult entrée of equal or lesser value in the party (party meaning 2 or more people) complimentary.","20% off pizza if less than 2 non-pizza entrÃ©es are ordered"],"id":"sorcis-italian-eatery","formatted_address":"1012 Ryan Avenue, Sumner, WA 98390, USA","lat":47.2038429,"lng":-122.2400634},"spencers-for-steak-chops":{"name":"Spencers for Steak & Chops","address":"17620 Pacific Hwy S","city":"Seattle","state":"WA","zip":"98188","telephone":"(206) 248-7153","promotions":["Receive the second adult entrée of equal or lesser value in the party (party meaning 2 or more people) complimentary."],"id":"spencers-for-steak-chops","formatted_address":"17620 Pacific Highway South, Seattle, WA 98188, USA","lat":47.444451,"lng":-122.295454,"rating":4,"gplaces_ref":"CoQBfgAAAOTjmlnC1uOOsYuPe-LNLoIKK9_FeJjgatUWc2KDxcP0QMiaaSAMkQjV3X38i8v4p0ASQ8qhhC-pTbmla4arcwV5Lw2f7ook5ezedBsyiSVVm_t2eb6E3jBHYcBWLu4w2SlQicNYrO22FlZJ397EC4hdDX7bllfEqrdbjBRvqQXiEhD1jXqtrnkHYgYxbUldOt17GhQEFxN5AGoL-ZZdlXPgdR_Hg-wgMg"},"sullivans-steakhouse-of-wa":{"name":"Sullivans Steakhouse of WA","address":"621 Union St.","city":"Seattle","state":"WA","zip":"98101","telephone":"(206) 494-4442","promotions":["Receive the second adult entrée of equal or lesser value in the party (party meaning 2 or more people) complimentary.","$20 off 2nd \"The Sure Thing Prix-Fixe Menu\" if less than 2 entrÃ©es are ordered","Dine-in only. Seattle location only."],"id":"sullivans-steakhouse-of-wa","formatted_address":"621 Union Street, Seattle, WA 98101, USA","lat":47.610065,"lng":-122.332941,"rating":4.3,"gplaces_ref":"CoQBdwAAADviuWMOwSNBahPTwkoTF74m10B5kQB2KjBi3gfp8ZS8YmdOhR0vU1xwBEZPVDQkr0SKlF-Exoz2GPi1u6NKJcG-nBjVNYoo7aSgmLgZkouAUx8DNQSMKUbA9962EwZpeJSYG0ksq0EUonK_GP4xFXME4Coq6K0sbGHQ-JJFP8sLEhAWyI_DnGrDz5ntwSHR5d51GhSJTvPYbPl3D5wXyzLklZDOrWqIWQ"},"ts-mchughs":{"name":"T.S. McHughs","address":"21 Mercer St.","city":"Seattle","state":"WA","zip":"98109","telephone":"(206) 282-1910","promotions":["Receive the second adult entrée of equal or lesser value in the party (party meaning 2 or more people) complimentary.","20% off total bill when dining alone"],"id":"ts-mchughs","formatted_address":"21 Mercer Street, Seattle, WA 98109, USA","lat":47.624488,"lng":-122.355922,"rating":3.9,"gplaces_ref":"CnRwAAAAUEl7Q3r2akYVcubqPJuZquL7RVCoUymr6qU-ZYSrroC4LONwvKHuTV3N0MlKn9UQV-icGdtRFuYpYpfP8KF9fxy98F_E-PelUv-eowYmrfFfn1GmeHlVXky0CzE7-IMqlgcgwtd47HRZsj83hs_RSRIQmVwufPhoRudyCuP_ITxWGxoUqhonU4wcaRX4xlCrVIyky0o6Q_k"},"tap-house-grill":{"name":"Tap House Grill","address":"550 106th Ave. NE #101","city":"Bellevue","state":"WA","zip":"98004","telephone":"(425) 467-1730","promotions":["Receive the second adult entrée of equal or lesser value in the party (party meaning 2 or more people) complimentary.","20% off total bill when dining alone","10% savings on banquets booked"],"id":"tap-house-grill","formatted_address":"550 106th Avenue Northeast #101, Bellevue, WA 98004, USA","lat":47.615142,"lng":-122.198025,"rating":3.8,"gplaces_ref":"CoQBcQAAAGmluSWpaf_fHs58fy2fi6f-YXiBWtckZvLhj1yEpRysSMoK6h9ziWFSnhcOE6y25e3N9wifJiUhcaqR-vOUIZZzJ651E-dksgUrJDpzRZEYUy07ORHzMxmF-B3xdEdvBHvQcXq3N5xzY-zqeKKRhd3fbEKs5NMGx1U3H8QqtPe0EhCHWEy8Qjdw_CiZ9zwPVGdvGhSyM_dRdc0_bkBuguJo4kw7P5_erw"},"taste-restaurant":{"name":"Taste Restaurant","address":"1300 1st Ave.","city":"Seattle","state":"WA","zip":"98101","telephone":"(206) 903-5291","promotions":["Receive the second adult entrée of equal or lesser value in the party (party meaning 2 or more people) complimentary.","10% savings on banquets booked","Sun all day brunch only."],"id":"taste-restaurant","formatted_address":"1300 1st Avenue, Seattle, WA 98101, USA","lat":47.60732,"lng":-122.338534,"rating":4,"gplaces_ref":"CnRnAAAAy9CjqDU6nuIZXtodHcwXMqQryton-aj-UZ6pJEvUVbNNLMPVZqkBn37yTPxj9wnqPYMVVr8xaARBeDiATBPnE5E93P1O6jEKKA9hhVR6bHh9T5GglUXfSon6ozCNU6Q0gqTP9eWy0MJqHiZM96L7dhIQ_Wy5O4TnPY4Qz_kFUnmVcxoUN2Ic9bfSSiAsyTS0WleKZu9lRCg"},"teapot-vegetarian-house":{"name":"Teapot Vegetarian House","address":"15230 NE 24th St","city":"Redmond","state":"WA","zip":"98052","telephone":"(425) 373-1888","promotions":["20% off total guest check(2 - 6 adults)","18% gratuity automatically added"],"id":"teapot-vegetarian-house","formatted_address":"15230 Northeast 24th Street, Redmond, WA 98052, USA","lat":47.63189,"lng":-122.136659,"rating":3.9,"gplaces_ref":"CoQBeQAAAJmjXjU2pSZPPCLYqHyU0uMjHNhOdwf3WST2NQ8MC3bvJCGrY8Y_RvD7_-J4Yx_Z_w9HSnPCKAWPPZ0yDK-7dzz9ynoCsO_f6AQnGYYHe8sd7dXXpGaAkFq1j0tywnL6bLoE9e_DIohpAp1ei1Yzrj7hjTjpuprOqWw-p40xPYRlEhBgHVsG6r2BXT1XSuo7AaxNGhREVmbtC2FoC1MWyefc0GDN6fa4Ig"},"thai-vp-cuisine":{"name":"Thai VP Cuisine","address":"15920 NE 8th St.","city":"Bellevue","state":"WA","zip":"","telephone":"(425) 502-7115","promotions":["20% off total guest check(2 - 6 adults)","Not valid on dine-alone"],"id":"thai-vp-cuisine","formatted_address":"15920 Northeast 8th Street, Bellevue, WA 98008, USA","lat":47.617222,"lng":-122.127945,"rating":4.2,"gplaces_ref":"CnRwAAAA6RVvaHYEdyLGBUJf0ea8tdgxQ8CPWwQVR0n0iI1es3Msgv-cY9qSuA6sxc6bhnctDC1UdUIIIvSAeF-8MVLXzBqtc8XcgGFBY95dYzyoKus4_cAeC5bGlZuygZuGwk8rDjjQHMJOHExQeOu08kDflRIQLv3V5cEI7--Kr5qLNCIboRoUic2AYA1ULBIVlsmN5Z2bWx1CGK8"},"the-clubhouse-at-mccormick-woods":{"name":"The Clubhouse at McCormick Woods","address":"5155 McCormick Woods Dr. SW","city":"Port Orchard","state":"WA","zip":"98367","telephone":"(360) 895-0142","promotions":["Receive the second adult entrée of equal or lesser value in the party (party meaning 2 or more people) complimentary."],"id":"the-clubhouse-at-mccormick-woods","formatted_address":"5155 McCormick Woods Drive Southwest, Port Orchard, WA 98367, USA","lat":47.501805,"lng":-122.6892273},"the-crab-cracker":{"name":"The Crab Cracker","address":"452 Central Way","city":"Kirkland","state":"WA","zip":"98033","telephone":"(425) 827-8700","promotions":["Receive the second adult entrée of equal or lesser value in the party (party meaning 2 or more people) complimentary.","20% off total bill when dining alone"],"id":"the-crab-cracker","formatted_address":"452 Central Way, Kirkland, WA 98033, USA","lat":47.678583,"lng":-122.19992,"rating":4,"gplaces_ref":"CoQBcgAAAAd-TI_BdKtbeW4UJQpUdP98zwPTifkcTIGTC8AlsghqehqiMJWZvaa8B7wSDomP6BczvUCKcOPua7D8ptBOY_2LgwTT9xAVGvtF-hpPaJzkR5ILEMOnW6z21mBKHZKOArl125oNFfNKsReKrBIRkPY88AMlE16cFHEI0A3o5GDJEhB1ZkSgjNGxTlNEbpDuRlopGhRdIyFxB-TqhYYnSeu_dv_8pJvSCg"},"the-georgian":{"name":"The Georgian","address":"411 University St.","city":"Seattle","state":"WA","zip":"98101","telephone":"(206) 621-7889","promotions":["Receive the second adult entrée of equal or lesser value in the party (party meaning 2 or more people) complimentary.","When ordering multiple course meals, least expensive a la carte will be compliments","20% off total bill when dining alone","Not valid with Afternoon Tea"],"id":"the-georgian","formatted_address":"411 University Street, Seattle, WA 98101, USA","lat":47.608225,"lng":-122.334085,"rating":4.6,"gplaces_ref":"CnRvAAAA0x9SWziSpYtwJ44f8x46r6yMMgeMj1cq9S6Us7J3s9i07LJlrSSADW1W-xCodLwuu-zlSdZKBQ5WRli5-DwiXHh8cLzuCEp9KxCf_efA5T4Uktjg6jx8KzFlKgaueij5hkYyO0HHWHcRFj1oOgtFvhIQTAiCdWUvLjvWzGjZ21gN3RoUIA5DNCt9_a2y1cc5qeLo6d8RFNA"},"the-herbfarm-restaurant":{"name":"The Herbfarm Restaurant","address":"14590 NE 145th St.","city":"Woodinville","state":"WA","zip":"98072","telephone":"(425) 485-5300","promotions":["When ordering multiple course meals, $30 will be deducted from the bill.","20% off total bill when dining alone"],"id":"the-herbfarm-restaurant","formatted_address":"14590 Northeast 145th Street, Woodinville, WA 98072, USA","lat":47.732984,"lng":-122.14727,"rating":4.7,"gplaces_ref":"CnRvAAAAa9tPBScTPU8RXNP11MFA0OJ3Bqor039EZ-TJlB9uVNh1vEbDof42fgTTs4RAjxOMMRukh-AwsqBoz_D_xuHWA6VQCA8bDZU752g0ZfyQlSQbfScHI1dogae_v5hWi9kMWv0apnodjEaXB8saD9MaNRIQgJMQepfWUVMOzEF4k7zQvRoUn0YsoW9zjUZYiO2SnBldHCJx3j0"},"the-hunt-club":{"name":"The Hunt Club","address":"900 Madison Ave.","city":"Seattle","state":"WA","zip":"98104","telephone":"(206) 343-6156","promotions":["Receive the second adult entrée of equal or lesser value in the party (party meaning 2 or more people) complimentary."],"id":"the-hunt-club","formatted_address":"900 Madison Street, Seattle, WA 98104, USA","lat":47.608954,"lng":-122.32677},"the-marketplace-grille":{"name":"The MarketPlace Grille","address":"8825 N Harborview Dr.","city":"Gig Harbor","state":"WA","zip":"98332","telephone":"(253) 858-3487","promotions":["Receive the second adult entrée of equal or lesser value in the party (party meaning 2 or more people) complimentary.","20% off total bill when dining alone"],"id":"the-marketplace-grille","formatted_address":"8825 North Harborview Drive, Gig Harbor, WA 98332, USA","lat":47.3389693,"lng":-122.5899919},"the-melting-pot":{"name":"The Melting Pot","address":"14 Mercer St.","city":"Seattle","state":"WA","zip":"98109","telephone":"(206) 378-1208","promotions":["20% off total guest check(2 - 6 adults)"],"id":"the-melting-pot","formatted_address":"14 Mercer Street, Seattle, WA 98109, USA","lat":47.6246948,"lng":-122.356162},"the-melting-pot-2":{"name":"The Melting Pot","address":"2121 Pacific Ave.","city":"Tacoma","state":"WA","zip":"98402","telephone":"(253) 535-3939","promotions":["20% off total guest check(2 - 6 adults)"],"id":"the-melting-pot-2","formatted_address":"2121 Pacific Avenue, Tacoma, WA 98402, USA","lat":47.242282,"lng":-122.435622},"the-melting-pot-2-3":{"name":"The Melting Pot","address":"302 108th Ave. NE","city":"Bellevue","state":"WA","zip":"98004","telephone":"(425) 646-2744","promotions":["20% off total guest check(2 - 6 adults)"],"id":"the-melting-pot-2-3","formatted_address":"302 108th Avenue Northeast, Bellevue, WA 98004, USA","lat":47.612627,"lng":-122.196039,"rating":3.9,"gplaces_ref":"CoQBcgAAAEG_2o3oNXeFLnVEoovTyRxEw_ttBcDrH4HeIJ2dYX6_EK-rD7IMIMIhT4cuit_zprUy_beZ-Sg6RaQU5aheEMUt3Dw2jPHeYpQTsZTJ2zQfWRySzRZD5n9oZdL6VRmKtvBAo3nemnF7hbMn3eKmduLtOKwI82BRncQ9eme8PHQSEhDzuZUsvHzU7ruAq9jKYd3qGhRWtWeVPjpSI48rsW3cARFuzsafhg"},"the-scotch-and-vine":{"name":"The Scotch and Vine","address":"22341 Marine View Dr S","city":"Des Moines","state":"WA","zip":"98198","telephone":"(206) 592-2139","promotions":["20% off total guest check(2 - 6 adults)","20% off total bill when dining alone"],"id":"the-scotch-and-vine","formatted_address":"22341 Marine View Drive South, Des Moines, WA 98198, USA","lat":47.400622,"lng":-122.32474,"rating":4.1,"gplaces_ref":"CoQBdQAAAIF8cdVYutPFGarKNfNos_fzCtzM9RGJGtdryUY-qryLUKIoYOlg70ByqgxhT5_YiXa9vb5ltK3_juPlt9oQbKeHy_VtbbDucUu-r3K4trav83VlLu2ZOlUmiLCCb1PDYVqXktje4ZMhxjOd-9ObWAH1jwha_QicI-OVryyvz6BQEhDI991t351m3AUWoVJmRrvnGhStiRjUeQ_GJdwDxZNTltcECEMllQ"},"tin-lizzie":{"name":"Tin Lizzie","address":"600 Queen Anne Ave N","city":"Seattle","state":"WA","zip":"98109","telephone":"(206) 805-4422","promotions":["20% off total guest check(2 - 6 adults)","20% off total bill when dining alone"],"id":"tin-lizzie","formatted_address":"600 Queen Anne Avenue North, Seattle, WA 98109, USA","lat":47.624998,"lng":-122.356395},"tokyo-steak-house":{"name":"Tokyo Steak House","address":"1404 S 320th St.","city":"Federal Way","state":"WA","zip":"98003","telephone":"(253) 839-4352","promotions":["Prix-Fixe: $6 off 2 lunches, $14 off 2 dinners20% off Sushi","20% off total bill when dining alone","Max 2 cards"],"id":"tokyo-steak-house","formatted_address":"1404 South 320th Street, Federal Way, WA 98003, USA","lat":47.3155216,"lng":-122.3155892},"tokyo-steak-house-2":{"name":"Tokyo Steak House","address":"909 112th Ave. NE","city":"Bellevue","state":"WA","zip":"98004","telephone":"(425) 449-8567","promotions":["Prix-Fixe: $6 off 2 lunches, $14 off 2 dinners20% off Sushi","20% off total bill when dining alone","Max 2 cards"],"id":"tokyo-steak-house-2","formatted_address":"909 112th Avenue Northeast, Bellevue, WA 98004, USA","lat":47.618116,"lng":-122.191149,"rating":4.2,"gplaces_ref":"CoQBcgAAANAyf4W7B3zYY2AO-ZvKC31a5JaLjOmF9mR7l_iyxYUdPA8BUiVg1nyvFwOpuib8qTWn7pp1kAlZMcUIxkHhBbRB_uMeyrn29tD480_JmS1VlyhAXG-GOEw_oHj6y56t_qI9vOwaAzXuVGmjoYA8G28WHy0hzrAIVUPMZpMUJsFvEhCS0kqlli9mhjvqQdxPMtTzGhQpiYG-Wk1wnY_7MDJewW2OGGScZA"},"twisted-kilt":{"name":"Twisted Kilt","address":"109 S Meridian","city":"Puyallup","state":"WA","zip":"98371","telephone":"(253) 604-4791","promotions":["Receive the second adult entrée of equal or lesser value in the party (party meaning 2 or more people) complimentary."],"id":"twisted-kilt","formatted_address":"109 South Meridian, Puyallup, WA 98371, USA","lat":47.191418,"lng":-122.293363},"uncle-sis-pizza":{"name":"Uncle Sis Pizza","address":"7729 Center Blvd. SE","city":"Snoqualmie","state":"WA","zip":"98065","telephone":"(425) 396-7975","promotions":["20% off total guest check(2 - 6 adults)"],"id":"uncle-sis-pizza","formatted_address":"7729 Center Boulevard Southeast, Snoqualmie, WA 98065, USA","lat":47.5303,"lng":-121.873363,"rating":3.8,"gplaces_ref":"CoQBcgAAAMK6WAjI51AHQSVjh_wUJgIq3XVlblEXqwGS0N-PptitbUxyOvioc9abZMxQpINm3QYGeCTm4gQrPmkbTHk5kyXf11opOz8xVSlgog80hJtfOXD8KgQgHjJVMTpd8fEXb_LoloZsR-5BqnDGzf0T65FJIj341kjwp2XGnTtAd90REhD4GEvRyw5v7mkdggo7lgcKGhQm9WapjjBN5Mw7FehGsPCNm4pjEQ"},"urban-onion":{"name":"Urban Onion","address":"116 Legion Way","city":"Olympia","state":"WA","zip":"98501","telephone":"(360) 943-9242","promotions":["Receive the second adult entrée of equal or lesser value in the party (party meaning 2 or more people) complimentary.","20% off total bill when dining alone"],"id":"urban-onion","formatted_address":"116 Legion Way Southeast, Olympia, WA 98501, USA","lat":47.0435299,"lng":-122.900591},"village-wines":{"name":"Village Wines","address":"14450 NE Woodinville-Redmond Rd","city":"Woodinville","state":"WA","zip":"98072","telephone":"(425) 485-3536","promotions":["Receive the second adult entrée of equal or lesser value in the party (party meaning 2 or more people) complimentary.","Not valid for retail wine purchase20% off pizza if less than 2 non-pizza entrÃ©es are ordered"],"id":"village-wines","formatted_address":"14450 Woodinville Redmond Road Northeast, Woodinville, WA 98072, USA","lat":47.732326,"lng":-122.140925,"rating":null,"gplaces_ref":"CnRwAAAA9_CtZs78J9PJyKtiOazA69ci3pkv0B9zf-53T5aMFGU3VKtkNI6QZ_HaYQ0QYUp8_Ya2wuBbpZlohfiUIDTA_LV9elYyq0DbHMiA4NN0o3WLdEIIkCYwvJhou5oPvzIAd-d2spsQNM2qC3pW_8biVRIQlxeYqpi9V-pMajEYhCcb_xoUO9exD5fFcQqxCexL8T1toapeRJE"},"washington-sips":{"name":"Washington Sips","address":"608 S First St","city":"La Conner","state":"WA","zip":"98257","telephone":"(360) 399-1037","promotions":["20% off total guest check(2 - 6 adults)"],"id":"washington-sips","formatted_address":"608 1st Street, La Conner, WA 98257, USA","lat":48.390175,"lng":-122.497167,"rating":null,"gplaces_ref":"CpQBgQAAALxpJrZhOLCLHYHNaNxGt6pg0uGlNVyZR3HRbqfZlpxjXW6xfUJxGpONqi05rkrisJKppgzkFiCihvwDT0tY6xEUqeaFS-Eiufo-808_ELAD310OzZaXAYZUaM1C85xwdO8dTsC3GK5T12gqSWiiqrUfVyX7X9Mb48N6qtYdcaMI3fxhx8njU3XHbBMp3dxNlhIQeCXCkcS6LFsv9gnVgTd6sxoU0Scn-zYQi-eGvXBh80U78QcTtWE"},"wild-wasabi":{"name":"Wild Wasabi","address":"19720 44th Ave W","city":"Lynnwood","state":"WA","zip":"98036","telephone":"(425) 776-8068","promotions":["20% off total guest check(2 - 6 adults)","Not valid during Happy Hour"],"id":"wild-wasabi","formatted_address":"19720 44th Avenue West, Lynnwood, WA 98036, USA","lat":47.82001109999999,"lng":-122.2932803},"wilde-rover":{"name":"Wilde Rover","address":"111 Central Way","city":"Kirkland","state":"WA","zip":"98033","telephone":"(425) 822-8940","promotions":["Receive the second adult entrée of equal or lesser value in the party (party meaning 2 or more people) complimentary.","20% off total bill when dining alone"],"id":"wilde-rover","formatted_address":"111 Central Way, Kirkland, WA 98033, USA","lat":47.676313,"lng":-122.207875,"rating":3.8,"gplaces_ref":"CnRtAAAANINAtCcsC65z8YriPaD_PsNrVST36oj7SmY_KaF_65lZY8auDPmZ40YXTOpNI9HoT1_Gf8xlt0w3kb38dNfuqjRe1nzNusZBuzbZ8XSi4P_rR9sKrXGZxtGyiZ1K_V2fN9ptCgFjb_JRk3AN1MMpxhIQSW4V8Ix26XjAKMBXLRipEBoUS2ySgqTB6DOWvASwYMx9AKdELqQ"},"windmill-bistro":{"name":"Windmill Bistro","address":"16009 60th St E","city":"Sumner","state":"WA","zip":"98390","telephone":"(253) 826-7897","promotions":["Receive the second adult entrée of equal or lesser value in the party (party meaning 2 or more people) complimentary.","18% gratuity automatically added"],"id":"windmill-bistro","formatted_address":"16009 60th Street East, Sumner, WA 98390, USA","lat":47.2035324,"lng":-122.2153211},"woodman-lodge-steakhouse-saloon":{"name":"Woodman Lodge Steakhouse & Saloon","address":"38601 SE King St.","city":"Snoqualmie","state":"WA","zip":"98065","telephone":"(425) 888-4441","promotions":["Receive the second adult entrée of equal or lesser value in the party (party meaning 2 or more people) complimentary.","10% savings on banquets booked"],"id":"woodman-lodge-steakhouse-saloon","formatted_address":"38601 Southeast King Street, Snoqualmie, WA 98065, USA","lat":47.528467,"lng":-121.826161,"rating":4,"gplaces_ref":"CpQBjgAAAMgl1n7bf7dyJd_bvxH_7CxjiVWTIf96aXjqn-h8fP97cn-eaz8nVqQEbi4MbiY75YBVNznwE0Npl4c21m0QWurJvnODzmkEZFQh6lWZ6nBP5fgXvabYH3gNFyV-q-bQDqNUzCrI8Lz7jsPvoNugcJCpGLRoYPxW-s4kHxpW3iC0Isk4pRpIiTByvPC-SfEo3BIQRgOm7XgF_iC5LzzxhknyoBoUMFM7TjAP1pJJagof0Fjl6STEV7E"},"ynot-sports-grill":{"name":"Ynot Sports Grill","address":"2015 Hewitt Ave","city":"Everett","state":"WA","zip":"98201","telephone":"(425) 610-4379","promotions":["Receive the second adult entrée of equal or lesser value in the party (party meaning 2 or more people) complimentary.","20% off total bill when dining alone"],"id":"ynot-sports-grill","formatted_address":"2015 Hewitt Avenue, Everett, WA 98201, USA","lat":47.979346,"lng":-122.202003,"rating":null,"gplaces_ref":"CoQBdwAAADNOrJrm8bvqVMkyuiOjP9LpM-qF_B8AStfK-A4wmJt81xk2H2VCsqMFJ6uAzDqw-T8BGY0gnIyl6X63uD0uRlbBP0bvDpv7caJM6mhKuXrUkJEs3-mrL-iJT3HqewwMQs3k3co1AZ2n7dcKcuC5HzSbjlK9nvUpwFVZ0VSKoVaaEhCsLpBQMOXln-ddHs4exeyKGhS2k5fmW56dJ1-Mln1bpf730aPlKA"}}